LOCATION_NAME,TSN,LATITUDE,LONGITUDE,EFA_ID,PHONE,ADDRESS,FACILITIES,ACCESSIBILITY,TRANSPORT_MODE,MORNING_PEAK,AFTERNOON_PEAK,SHORT_PLATFORM
"Abbotsford Wharf",2046158,-33.84367442,151.1281726,10102011,,"Great North Rd, Abbotsford NSW 2046","Kiss and ride stopping area | Bike racks | Toilets | Emergency help point | Departure indicator screen","This location is Independent Access | Wheelchair ramp boarding assistance | Hearing loop | PA system for announcements | Wharf edge tactiles","Bus, Ferry",,,False
"Aberdeen Station",233610,-32.16710358,150.8920522,10101192,"02 6543 1018","Macqueen St, Aberdeen NSW 2336","Commuter car park | Emergency help point | No Opal card top up or single trip ticket sales","This location is Independent Access | Wheelchair ramp boarding assistance | Hearing loop | PA system for announcements | Platform edge tactiles | Stairs",Train,6.00-10am,3.00-7pm,True
"Adamstown Station",228920,-32.93372988,151.7200807,10101159,"02 4962 9295","Park Ave, Adamstown NSW 2289","Commuter car park | Wheelchair accessible car space | Kiss and ride stopping area | Bike racks | Emergency help point | Information point | Payphone | No Opal card top up or single trip ticket sales","This location is Independent Access | Wheelchair ramp boarding assistance | Hearing loop | PA system for announcements | Platform edge tactiles | Level crossing | Stairs | Lift","Train, Bus",6.00-10am,3.00-7pm,True
"Adelaide Central Bus Station",50001,-34.92748,138.595501,10150217,,"Franklin St, Adelaide SA 5000",,,"Regional coach",,,False
"Adelong Coach Stop",27291,-35.308251,148.063498,10150152,,"Neill St at Tumut St, Adelong NSW 2729",,,Coach,,,False
"Albion Park Station",252710,-34.56264671,150.7984997,10101381,"02 4223 5416","Princes Hwy, Albion Park Rail NSW 2527","Commuter car park | Wheelchair accessible car space | Kiss and ride stopping area | Bike racks | Toilets | Wheelchair accessible toilet | Baby change table | Emergency help point | Payphone | Opal card top up or single trip ticket machine (Card Payment only)","This location is Assisted Access | Wheelchair ramp boarding assistance | PA system for announcements | Platform edge tactiles | Level crossing | Stairs","Train, Bus",6.00-10am,3.00-7pm,True
"Albury QEII Square",26403,-36.080795,146.917218,10155845,,"QEII Square, Dean St, Albury NSW 2640",,,"Bus, Coach",,,False
"Albury Station",26401,-36.084068,146.924691,10155026,"13 22 32","Railway Pl, East Albury NSW 2640","Commuter car park | Wheelchair accessible car space | Kiss and ride stopping area | Taxi rank | Bike racks | Toilets | Wheelchair accessible toilet | Baby change table | Emergency help point | Information point | Payphone | Departure indicator screen","This location is Independent Access | Wheelchair ramp boarding assistance | Hearing loop | Hearing loop (ticket counter) | PA system for announcements | Platform edge tactiles | Stairs","Train, Regional coach, Taxi",,,False
"Alectown Coach Stop",28703,-32.933121,148.240234,10150260,,"Goobang St before Cross St, Alectown NSW 2870",,,Coach,,,False
"Allawah Station",222020,-33.96958391,151.11433,10101338,"02 9563 7415","Railway Pde, Allawah NSW 2218","Commuter car park | Wheelchair accessible car space | Kiss and ride stopping area | Bike racks | Toilets | Wheelchair accessible toilet | Baby change table | Emergency help point | Payphone | Departure indicator screen | Opal card top up or single trip ticket machine (Cash or Card Payment)","This location is Independent Access | Wheelchair ramp boarding assistance | Hearing loop | PA system for announcements | Platform edge tactiles | Stairs | Lift","Train, Bus",6.30-10am,3.00-7pm,False
"Allworth Coach Stop",24253,-32.531345,151.944198,10150340,,"The Bucketts Way opp Allworth Rd, Allworth NSW 2425",,,Coach,,,False
"Alstonville Coach Stop",24771,-28.8418,153.44001,10150208,,"Main St at Daley St, Alstonville NSW 2477",,,Coach,,,False
"Ardlethan Coach Stop",26654,-34.357807,146.902563,10150175,,"Ariah St before Yithan St, Ardlethan NSW 2665",,,Coach,,,False
"Ariah Park Coach Stop",26651,-34.347706,147.221084,10150172,,"Ariah Park Post Office, Coolamon St, Ariah Park NSW 2665",,,Coach,,,False
"Arlington Light Rail",220322,-33.90184127,151.1380613,10101460,,"Constitution Rd, Dulwich Hill NSW 2203","Kiss and ride stopping area | Bike racks | Emergency help point","This location is Independent Access | Hearing loop | PA system for announcements | Platform edge tactiles | Level crossing | Stairs","Light rail",6.30-10am,3.00-7pm,False
"Armidale Station",23501,-30.515373,151.651753,10155025,"13 22 32","Brown St, Armidale NSW 2350","Commuter car park | Wheelchair accessible car space | Kiss and ride stopping area | Taxi rank | Bike racks | Toilets | Wheelchair accessible toilet | Baby change table | Emergency help point | Information point | Departure indicator screen","This location is Independent Access | Wheelchair ramp boarding assistance | Hearing loop | PA system for announcements | Platform edge tactiles | Stairs","Train, Regional coach, Taxi",,,False
"Arncliffe Station",220520,-33.93645619,151.1472995,10101333,"02 9563 7431","Firth St, Arncliffe NSW 2205","Commuter car park | Wheelchair accessible car space | Kiss and ride stopping area | Taxi rank | Bike racks | Toilets | Wheelchair accessible toilet | Baby change table | Emergency help point | Payphone | Departure indicator screen | Opal card top up or single trip ticket machine (Card Payment only)","This location is Independent Access | Wheelchair ramp boarding assistance | Hearing loop | PA system for announcements | Platform edge tactiles | Stairs | Lift","Train, Bus, Taxi",6.30-10am,3.00-7pm,False
"Artarmon Station",206410,-33.80890264,151.1852939,10101116,"02 9379 1140","Hampden Rd, Artarmon NSW 2064","Wheelchair accessible car space | Kiss and ride stopping area | Taxi rank | Bike racks | Bike lockers | Wheelchair accessible toilet | Baby change table | Emergency help point | Payphone | Departure indicator screen | Opal card top up or single trip ticket machine (Card Payment only)","This location is Independent Access | Wheelchair ramp boarding assistance | PA system for announcements | Platform edge tactiles | Stairs | Lift","Train, Taxi",6.30-10am,3.00-7pm,True
"Ashfield Station",213110,-33.88755061,151.1255042,10101209,"02 9752 8356","Brown St, Ashfield NSW 2131","Commuter car park | Transport Park&Ride | Wheelchair accessible car space | Kiss and ride stopping area | Taxi rank | Bike racks | Bike lockers | Bike shed | Toilets | Wheelchair accessible toilet (MLAK) | Baby change table | Emergency help point | Payphone | Departure indicator screen | Opal card top up or single trip ticket machine (Card Payment only) | Opal card top up machine (Card Payment only)","This location is Independent Access | Wheelchair ramp boarding assistance | PA system for announcements | Platform edge tactiles | Stairs | Lift","Train, Bus, Taxi",6.30-10am,3.00-7pm,False
"Asquith Station",207730,-33.68876996,151.1080252,10101128,"02 9847 8495","Haldane St, Asquith NSW 2077","Commuter car park | Wheelchair accessible car space | Kiss and ride stopping area | Toilets | Emergency help point | Payphone | Free WiFi hotspot | Departure indicator screen | Opal card top up or single trip ticket machine (Card Payment only)","This location is Assisted Access | Wheelchair ramp boarding assistance | Hearing loop | PA system for announcements | Platform edge tactiles",Train,6.30-10am,3.00-7pm,True
"Attunga Coach Stop",23451,-30.92869,150.845836,10150244,,"Fossickers Way at Ridge St, Attunga NSW 2345",,,Coach,,,False
"Auburn Station",214410,-33.8492696,151.032867,10101219,"02 9848 9206","Rawson St, Auburn NSW 2144","Wheelchair accessible car space | Kiss and ride stopping area | Taxi rank | Bike racks | Bike lockers | Toilets | Wheelchair accessible toilet (MLAK) | Baby change table | Emergency help point | Payphone | Departure indicator screen | Opal card top up or single trip ticket machine (Card Payment only) | Opal card top up machine (Card Payment only)","This location is Independent Access | Wheelchair ramp boarding assistance | Hearing loop | PA system for announcements | Platform edge tactiles | Stairs | Lift","Train, Bus, Taxi",6.30-10am,3.00-7pm,False
"Austinmer Station",251540,-34.30641046,150.9293128,10101363,"02 4223 5573","Railway Ave, Austinmer NSW 2515","Commuter car park | Wheelchair accessible car space | Toilets | Emergency help point | Payphone | No Opal card top up or single trip ticket sales","This location is Assisted Access | Wheelchair ramp boarding assistance | Hearing loop | PA system for announcements | Platform edge tactiles","Train, Bus",6.00-10am,3.00-7pm,True
"Awaba Station",228310,-33.0129204,151.5416347,10101150,"02 4349 9241","Adelaide St, Awaba NSW 2283","Commuter car park | Emergency help point | Information point | No Opal card top up or single trip ticket sales","This location is Not Accessible | Wheelchair ramp boarding assistance | Hearing loop | PA system for announcements | Stairs","Train, Bus",6.00-10am,3.00-7pm,True
"Ballina Coach Stop",24782,-28.86933,153.560592,10150141,,"Tamar St before Moon St, Ballina NSW 2478",,,"Bus, Coach",,,False
"Ballina West Coach Stop",24781,-28.864101,153.533926,10150143,,"West Tower Tavern, River St, West Ballina NSW 2478",,,"Coach, Bus",,,False
"Balmain East Wharf",20414,-33.85696725,151.1959756,10102010,,"Darling St, Balmain East NSW 2041","Emergency help point | Departure indicator screen | Opal card top up or single trip ticket machine (Card Payment only)","This location is Independent Access | Wheelchair ramp boarding assistance | Hearing loop | PA system for announcements | Wharf edge tactiles | Stairs","Bus, Ferry",,,False
"Balmain Wharf",204157,-33.85471605,151.1863604,10102008,,"Thames St, Balmain NSW 2041","Wheelchair accessible car space | Kiss and ride stopping area | Bike racks | Emergency help point | Departure indicator screen | Opal card top up or single trip ticket machine (Card Payment only)","This location is Independent Access | Wheelchair ramp boarding assistance | Hearing loop | PA system for announcements | Wharf edge tactiles",Ferry,,,False
"Balranald Coach Stop",27151,-34.640572,143.564637,10150298,,"Balranald Information Centre, Market St, Balranald NSW 2715",,,Coach,,,False
"Bangalow Coach Stop",24791,-28.686545,153.5248,10150239,,"Station St at Byron St, Bangalow NSW 2479",,,Coach,,,False
"Banksia Station",221610,-33.94528645,151.1404316,10101334,"02 9563 7429","Hattersley St, Banksia NSW 2216","Wheelchair accessible car space | Taxi rank | Bike racks | Toilets | Emergency help point | Payphone | Departure indicator screen | Opal card top up or single trip ticket machine (Card Payment only)","This location is Not Accessible | Wheelchair ramp boarding assistance | PA system for announcements | Platform edge tactiles | Stairs","Train, Bus, Taxi",6.30-10am,3.00-7pm,False
"Bankstown Station",220010,-33.91786454,151.0346869,10101401,"02 9563 7160","North Tce, Bankstown NSW 2200","Commuter car park | Wheelchair accessible car space | Kiss and ride stopping area | Taxi rank | Bike racks | Bike lockers | Toilets | Wheelchair accessible toilet | Baby change table | Emergency help point | Payphone | Departure indicator screen | Opal card top up or single trip ticket machine (Card Payment only) | Opal card top up machine (Card Payment only)","This location is Independent Access | Wheelchair ramp boarding assistance | PA system for announcements | Platform edge tactiles | Stairs | Lift","Train, Bus, Taxi",6.30-10am,3.00-7pm,False
"Baradine Coach Stop",23961,-30.949333,149.066505,10150325,,"Wellington St at Darling St, Baradine NSW 2396",,,Coach,,,False
"Barangaroo Wharf",2000441,-33.864377,151.200591,10102039,,"Wulugul Walk, Barangaroo NSW 2000","Emergency help point | Departure indicator screen | Opal card top up or single trip ticket machine (Cash or Card Payment) | Opal card top up or single trip ticket machine (Card Payment only)","This location is Independent Access | Wheelchair ramp boarding assistance | Hearing loop | PA system for announcements | Wharf edge tactiles",Ferry,,,False
"Bardwell Park Station",220710,-33.93161666,151.1248574,10101410,"02 9563 7428","Hartill-Law Ave, Bardwell Park NSW 2207","Commuter car park | Toilets | Emergency help point | Payphone | Departure indicator screen | Opal card top up or single trip ticket machine (Cash or Card Payment)","This location is Not Accessible | Wheelchair ramp boarding assistance | PA system for announcements | Stairs","Train, Bus",6.30-10am,3.00-7pm,False
"Barellan Coach Stop",26655,-34.284782,146.572035,10150174,,"Burley Griffin Way before Myall St, Barellan NSW 2665",,,Coach,,,False
"Bargo Station",257420,-34.29136493,150.5802091,10101303,"02 4684 1320","Hume Hwy, Bargo NSW 2574","Commuter car park | Wheelchair accessible car space | Bike racks | Toilets | Emergency help point | No Opal card top up or single trip ticket sales","This location is Assisted Access | Wheelchair ramp boarding assistance | PA system for announcements","Train, Bus",6.00-10am,3.00-7pm,True
"Barmedman Coach Stop",26681,-34.143373,147.386609,10150247,,"Queen St after Star St, Barmedman NSW 2668",,,Coach,,,False
"Barooga Coach Stop",36441,-35.91225,145.69018,10150296,,"Vermont St at McFarland St, Barooga NSW 3644",,,Coach,,,False
"Barraba Coach Stop",23472,-30.380272,150.609609,10150015,,"Alice St before Queen St, Barraba NSW 2347",,,Coach,,,False
"Bathurst Station",279538,-33.42562703,149.5832161,10101281,"13 22 32","Havannah St, Bathurst NSW 2795","Commuter car park | Wheelchair accessible car space | Kiss and ride stopping area | Taxi rank | Bike racks | Toilets | Wheelchair accessible toilet | Baby change table | Emergency help point | Information point | Payphone | Departure indicator screen | Opal card top up or single trip ticket machine (Card Payment only)","This location is Independent Access | Wheelchair ramp boarding assistance | Hearing loop | PA system for announcements","Train, Regional coach, Bus, Taxi",6.00-10am,3.00-7pm,True
"Batlow Coach Stop",27301,-35.520277,148.14722,10150240,,"Memorial Ave at Pioneer St, Batlow NSW 2730",,,Coach,,,False
"Beckom Coach Stop",26652,-34.331341,146.958477,10150171,,"Service Station, Newell Hwy, Beckom NSW 2665",,,Coach,,,False
"Beecroft Station",211910,-33.74995417,151.0662982,10101197,"02 9847 8421","Wongala Cres, Beecroft NSW 2119","Commuter car park | Wheelchair accessible car space | Kiss and ride stopping area | Taxi rank | Bike racks | Bike lockers | Wheelchair accessible toilet | Baby change table | Emergency help point | Payphone | Departure indicator screen | Opal card top up or single trip ticket machine (Cash or Card Payment)","This location is Independent Access | Wheelchair ramp boarding assistance | Hearing loop | PA system for announcements | Platform edge tactiles | Stairs | Lift","Train, Bus, Taxi",6.30-10am,3.00-7pm,False
"Beenleigh Coach Stop",42071,-27.717673,153.204518,10150020,,"Beenleigh Station, Coach Terminal, Alamein St, Beenleigh QLD 4207",,,Coach,,,False
"Bega Coach Stop",25503,-36.673857,149.842188,10150291,,"Church St at Carp St, Bega NSW 2550",,,"Bus, Coach",,,False
"Belbora Coach Stop",24227,-32.012693,152.178504,10150182,,"2767 The Bucketts Way, Belbora NSW 2422",,,Coach,,,False
"Belconnen Interchange",26176,-35.23976,149.06966,10155887,,"Cohen st, Belconnen ACT 2617",,,"Bus, Coach",,,False
"Bell Station",278620,-33.50568554,150.2788861,10101272,"02 4787 8452","Bells Line of Road, Bell NSW 2786","Emergency help point | Information point | No Opal card top up or single trip ticket sales","This location is Assisted Access | Wheelchair ramp boarding assistance | PA system for announcements | Level crossing | Stairs",Train,6.00-10am,3.00-7pm,True
"Bella Vista Station",2153478,-33.730592,150.944024,10104005,,"Mawson Ave, Bella Vista NSW 2153","Bike shed | Bike racks | Commuter car park | Kiss and ride stopping area | Taxi rank | Opal card top up or single trip ticket machine (Cash or Card Payment) | Toilets | Wheelchair accessible toilet | Emergency help point | Payphone","This location is Independent Access | Lift | Escalator | Hearing loop | Wheelchair ramp boarding assistance | Platform edge tactiles | PA system for announcements","Metro, Bus, Taxi",6.30-10am,3.00-7pm,False
"Bellambi Station",251810,-34.36331842,150.9099025,10101367,"02 4223 5579","Bellambi Lane, Bellambi NSW 2518","Commuter car park | Wheelchair accessible car space | Toilets | Emergency help point | Payphone | No Opal card top up or single trip ticket sales","This location is Assisted Access | Wheelchair ramp boarding assistance | PA system for announcements | Platform edge tactiles | Level crossing","Train, Bus, Taxi",6.00-10am,3.00-7pm,True
"Bellata Coach Stop (northbound)",23972,-29.917328,149.791068,10155373,,"Railway Pde opp Wilga St, Bellata NSW 2397",,,Coach,,,False
"Bellata Coach Stop (southbound)",239712,-29.91767,149.791308,10155770,,"Railway Pde after Wilga St, Bellata NSW 2397",,,Coach,,,False
"Bellata Station",23971,-29.9183,149.7905,10155045,"13 22 32","Newell Hwy, Bellata NSW 2397",,"This location is Independent Access | Wheelchair ramp boarding assistance | Hearing loop | PA system for announcements",Train,,,False
"Belmore Station",219210,-33.91721798,151.0887332,10101397,"02 9563 7578","Burwood Rd, Belmore NSW 2192","Commuter car park | Wheelchair accessible car space | Kiss and ride stopping area | Taxi rank | Toilets | Wheelchair accessible toilet | Baby change table | Emergency help point | Payphone | Departure indicator screen | Opal card top up or single trip ticket machine (Cash or Card Payment)","This location is Independent Access | Wheelchair ramp boarding assistance | PA system for announcements | Platform edge tactiles | Stairs | Lift","Train, Bus, Taxi",6.30-10am,3.00-7pm,False
"Bemboka Coach Stop",25501,-36.627333,149.568778,10150295,,"General Store, Snowy Mountains Hwy, Bemboka NSW 2550",,,Coach,,,False
"Ben Bullen Coach Stop",2790133,-33.218809,150.021411,10150041,,"Castlereagh Hwy after Quarry Rd, Ben Bullen NSW 2790",,,Coach,,,False
"Bendemeer Coach Stop",23551,-30.883473,151.1548,10156850,,"Caroline St after Henry St, Bendemeer NSW 2355",,"This location is Not Accessible |","Bus, Coach",,,False
"Bendick Murrell Coach Stop",28031,-34.159821,148.445796,10150059,,"Main St after Ewens St, Bendick Murrell NSW 2803",,,Coach,,,False
"Berala Station",214120,-33.87183567,151.0324418,10101390,"02 9752 8813","Woodburn Rd, Berala NSW 2141","Commuter car park | Wheelchair accessible car space | Kiss and ride stopping area | Taxi rank | Bike racks | Wheelchair accessible toilet | Baby change table | Emergency help point | Payphone | Departure indicator screen | Opal card top up or single trip ticket machine (Cash or Card Payment)","This location is Independent Access | Wheelchair ramp boarding assistance | PA system for announcements | Platform edge tactiles | Stairs | Lift","Train, Bus, Taxi",6.30-10am,3.00-7pm,False
"Beresfield Station",232230,-32.79894599,151.6578627,10101172,"02 4962 9944","Addison St, Beresfield NSW 2322","Commuter car park | Wheelchair accessible car space | Toilets | Wheelchair accessible toilet | Baby change table | Emergency help point | Information point | Payphone","This location is Independent Access | Wheelchair ramp boarding assistance | Hearing loop | PA system for announcements | Platform edge tactiles | Stairs | Lift","Train, Bus, Taxi",6.00-10am,3.00-7pm,True
"Berowra Station",208110,-33.6236572,151.1529711,10101131,"02 9847 8496","Pacific Hwy, Berowra NSW 2081","Commuter car park | Wheelchair accessible car space | Bike racks | Bike lockers | Toilets | Wheelchair accessible toilet | Baby change table | Emergency help point | Payphone | Free WiFi hotspot | Departure indicator screen","This location is Independent Access | Wheelchair ramp boarding assistance | PA system for announcements | Platform edge tactiles | Stairs | Lift","Train, Bus",6.30-10am,3.00-7pm,True
"Berridale Coach Stop (northbound)",26282,-36.365118,148.82788,10161931,,"Berridale Inn, Jindabyne Rd, Berridale NSW 2628",,,Coach,,,False
"Berridale Coach Stop (southbound)",26281,-36.365863,148.827031,10161932,,"Berridale Lions Park, Jindabyne Rd, Berridale NSW 2628",,,Coach,,,False
"Berrigan Coach Stop",27121,-35.658002,145.812199,10150144,,"Jerilderie St after Carter St, Berrigan NSW 2712",,,Coach,,,False
"Berry Station",253510,-34.78033267,150.6969659,10101388,"02 4464 1022","Station Rd, Berry NSW 2535","Commuter car park | Wheelchair accessible car space | Toilets | Wheelchair accessible toilet | Baby change table | Emergency help point | Payphone | No Opal card top up or single trip ticket sales","This location is Independent Access | Wheelchair ramp boarding assistance | Hearing loop | PA system for announcements | Platform edge tactiles","Train, Bus, Taxi",6.00-10am,3.00-7pm,True
"Beverly Hills Station",220910,-33.94884857,151.0816922,10101413,"02 9563 7650","Morgan St, Beverly Hills NSW 2209","Commuter car park | Wheelchair accessible car space | Kiss and ride stopping area | Bike racks | Toilets | Wheelchair accessible toilet | Baby change table | Emergency help point | Payphone | Departure indicator screen | Opal card top up or single trip ticket machine (Card Payment only)","This location is Independent Access | Wheelchair ramp boarding assistance | PA system for announcements | Platform edge tactiles | Stairs | Lift","Train, Bus, Taxi",6.30-10am,3.00-7pm,False
"Bexhill Coach Stop",24801,-28.76554,153.34515,10150131,,"Bexhill School, Banglow Rd, Bexhill NSW 2480",,,Coach,,,False
"Bexley North Station",220720,-33.93756601,151.1133973,10101411,"02 9563 7613","Kingsgrove Ave, Bexley North NSW 2207","Commuter car park | Wheelchair accessible car space | Kiss and ride stopping area | Bike racks | Toilets | Wheelchair accessible toilet | Baby change table | Emergency help point | Departure indicator screen | Opal card top up or single trip ticket machine (Cash or Card Payment)","This location is Independent Access | Wheelchair ramp boarding assistance | Hearing loop | PA system for announcements | Platform edge tactiles | Stairs | Lift","Train, Bus",6.30-10am,3.00-7pm,False
"Bibbenluke Coach Stop",26321,-36.811109,149.280902,10150053,,"Monaro Hwy opp Bukalong Siding Rd, Bibbenluke NSW 2632",,,Coach,,,False
"Billinudgel Coach Stop",24831,-28.505065,153.528385,10150341,,"Bonanza Dr opp Lucky Lane, Billinudgel NSW 2483",,,Coach,,,False
"Binalong Coach Stop (northbound)",25842,-34.672661,148.629146,10150279,,"Stephens St before Monteagle St, Binalong NSW 2584",,,Coach,,,False
"Binalong Coach Stop (southbound)",25841,-34.67597,148.634203,10150281,,"Stephens St before Twynam St, Binalong NSW 2584",,,Coach,,,False
"Bingara Coach Stop (northbound)",240421,-29.868516,150.572172,10150275,,"Cunningham St at Maitland St, Bingara NSW 2404",,,Coach,,,False
"Bingara Coach Stop (southbound)",240422,-29.869512,150.572223,10150006,,"Maitland St after Cunningham St, Bingara NSW 2404",,,Coach,,,False
"Biniguy Coach Stop",23991,-29.536002,150.20611,10150356,,"Gwydir Hwy at Biniguy Ave, Biniguy NSW 2399",,,Coach,,,False
"Binna Burra Coach Stop",24792,-28.706562,153.497345,10150235,,"Bangalow Rd before Friday Hut Rd, Binna Burra NSW 2479",,,Coach,,,False
"Binnaway Coach Stop",23951,-31.55185,149.378649,10150219,,"Binnaway Post Office, Bullinda St, Binnaway NSW 2395",,,Coach,,,False
"Binya Coach Stop",26653,-34.229159,146.344388,10162150,,"Binya Post Office, Francis St, Binya NSW 2665",,,Coach,,,False
"Birchgrove Wharf",204156,-33.84645581,151.1863405,10102007,,"Louisa Rd, Birchgrove NSW 2041","Kiss and ride stopping area | Emergency help point | Departure indicator screen | No Opal card top up or single trip ticket sales","This location is Not Accessible | Wheelchair ramp boarding assistance | Hearing loop | PA system for announcements | Wharf edge tactiles | Stairs",Ferry,,,False
"Birrong Station",214320,-33.8932786,151.0240413,10101403,"02 9379 7727","Rodd St, Birrong NSW 2143","Commuter car park | Wheelchair accessible car space | Kiss and ride stopping area | Toilets | Wheelchair accessible toilet | Emergency help point | Departure indicator screen | Opal card top up or single trip ticket machine (Card Payment only) | Baby change table | Bike racks","This location is Independent Access | Wheelchair ramp boarding assistance | PA system for announcements | Platform edge tactiles | Stairs | Lift | Hearing loop",Train,6.30-10am,3.00-7pm,False
"Blackheath Station",278510,-33.63288104,150.284345,10101270,"02 4780 3992","Railway Pde, Blackheath NSW 2785","Commuter car park | Wheelchair accessible car space | Kiss and ride stopping area | Taxi rank | Bike lockers | Toilets | Wheelchair accessible toilet | Emergency help point | Payphone | Departure indicator screen | No Opal card top up or single trip ticket sales","This location is Assisted Access | Wheelchair ramp boarding assistance | Hearing loop | PA system for announcements | Platform edge tactiles | Level crossing | Stairs","Train, Bus, Taxi",6.00-10am,3.00-7pm,True
"Blacktown Station",214810,-33.76822903,150.9075105,10101235,"02 9851 7212","Main St, Blacktown NSW 2148","Commuter car park | Wheelchair accessible car space | Kiss and ride stopping area | Taxi rank | Bike racks | Bike lockers | Bike shed | Toilets | Wheelchair accessible toilet | Baby change table | Emergency help point | Payphone | Departure indicator screen | Opal card top up or single trip ticket machine (Card Payment only) | Opal card top up machine (Card Payment only)","This location is Independent Access | Wheelchair ramp boarding assistance | PA system for announcements | Platform edge tactiles | Stairs | Lift | Escalator","Train, Bus, Taxi",6.30-10am,3.00-7pm,True
"Blackwattle Bay Wharf",203783,-33.871362,151.185199,10102058,,"Leichhardt St, Glebe NSW 2037",,"This location is Not Accessible |",Ferry,,,False
"Blaxland Station",277410,-33.74357659,150.6095957,10101256,"02 4739 1620","Station St, Blaxland NSW 2774","Commuter car park | Wheelchair accessible car space | Kiss and ride stopping area | Taxi rank | Bike racks | Bike lockers | Toilets | Wheelchair accessible toilet | Baby change table | Emergency help point | Information point | Payphone | Departure indicator screen | Opal card top up or single trip ticket machine (Card Payment only)","This location is Assisted Access | Wheelchair ramp boarding assistance | PA system for announcements | Platform edge tactiles | Stairs | Lift","Train, Bus, Taxi",6.00-10am,3.00-7pm,True
"Blayney Station",27991,-33.52704,149.254516,10155031,"13 22 32","Railway Lane, Blayney NSW 2799","Commuter car park | Wheelchair accessible car space | Kiss and ride stopping area | Toilets | Wheelchair accessible toilet | Baby change table | Emergency help point","This location is Independent Access | Wheelchair ramp boarding assistance | Hearing loop | Hearing loop (ticket counter) | PA system for announcements | Platform edge tactiles | Stairs",Train,,,False
"Blighty Coach Stop",27132,-35.591983,145.287219,10150199,,"Blighty Pub, Riverina Hwy, Blighty NSW 2713",,,Coach,,,False
"Bogan Gate Coach Stop",28761,-33.107693,147.803932,10150229,,"General Store, Station St, Bogan Gate NSW 2876",,,Coach,,,False
"Bogangar Coach Stop",24881,-28.332352,153.5697,10150121,,"Tweed Coast Rd opp Pandanus Pde, Bogangar NSW 2488",,,Coach,,,False
"Boggabri Station",23821,-30.703834,150.039827,10155054,"13 22 32","Oakham St, Boggabri NSW 2382","Commuter car park | Toilets | Information point","This location is Independent Access | Wheelchair ramp boarding assistance | PA system for announcements",Train,,,False
"Bolivia Coach Stop",23722,-29.289661,151.960969,10150025,,"New England Hwy opp Mt Spirabo Rd, Bolivia NSW 2372",,,Coach,,,False
"Bomaderry Station",254110,-34.85377666,150.6098088,10101389,"02 4423 0141","Meroo St, Bomaderry NSW 2541","Commuter car park | Wheelchair accessible car space | Taxi rank | Bike lockers | Toilets | Wheelchair accessible toilet | Baby change table | Emergency help point | Payphone | Opal card top up or single trip ticket machine (Cash or Card Payment)","This location is Independent Access | Wheelchair ramp boarding assistance | Hearing loop | PA system for announcements | Platform edge tactiles","Train, Bus, Taxi",6.00-10am,3.00-7pm,True
"Bombala Coach Stop",26322,-36.911161,149.240322,10150052,,"Forbes St at Maybe St, Bombala NSW 2632",,,Coach,,,False
"Bombo Station",253320,-34.6580285,150.8539755,10101385,"02 4223 5613","Princes Hwy, Bombo NSW 2533","Commuter car park | Wheelchair accessible car space | Emergency help point | Information point | Payphone | No Opal card top up or single trip ticket sales","This location is Independent Access | Wheelchair ramp boarding assistance | PA system for announcements | Platform edge tactiles | Stairs","Train, Taxi",6.00-10am,3.00-7pm,True
"Bondi Junction Station",202210,-33.89120228,151.2483843,10101109,"02 9379 4843","Grafton St, Bondi Junction NSW 2022","Taxi rank | Bike racks | Bike lockers | Toilets | Wheelchair accessible toilet | Baby change table | Emergency help point | Payphone | Departure indicator screen | Opal card top up or single trip ticket machine (Cash or Card Payment) | Opal card top up machine (Card Payment only)","This location is Independent Access | Wheelchair ramp boarding assistance | PA system for announcements | Platform edge tactiles | Stairs | Lift | Escalator","Train, Bus, Taxi",6.30-10am,3.00-7pm,True
"Booragul Station",228410,-32.97142254,151.6046902,10101152,"02 4962 9437","Station St, Booragul NSW 2284","Emergency help point | Information point | No Opal card top up or single trip ticket sales","This location is Not Accessible | Wheelchair ramp boarding assistance | PA system for announcements | Platform edge tactiles | Stairs",Train,6.00-10am,3.00-7pm,True
"Booral Coach Stop",24251,-32.466585,151.95947,10150344,,"The Bucketts Way at Booral Rd, Booral NSW 2425",,,Coach,,,False
"Boppy Mountain Coach Stop",28353,-31.531,146.2831,10150124,,"Barrier Hwy after Booroomugga Rd, Canbelego NSW 2835",,,Coach,,,False
"Bourke Coach Stop",28401,-30.094494,145.935178,10150352,,"Old Railway Station, Anson St, Bourke NSW 2840",,,Coach,,,False
"Bowning Coach Stop",25824,-34.767715,148.814797,10150137,,"Leake St opp Playfair St, Bowning NSW 2582",,,Coach,,,False
"Bowral Station",257610,-34.47812317,150.4166585,10101306,"02 4861 2045","Station St, Bowral NSW 2576","Commuter car park | Wheelchair accessible car space | Kiss and ride stopping area | Taxi rank | Toilets | Wheelchair accessible toilet | Baby change table | Emergency help point | Information point | Payphone | Opal card top up or single trip ticket machine (Card Payment only)","This location is Independent Access | Wheelchair ramp boarding assistance | Hearing loop | PA system for announcements | Platform edge tactiles | Stairs | Lift","Train, Bus, Taxi, Regional coach",6.00-10am,3.00-7pm,True
"Branxton Station",233510,-32.66225215,151.3456449,10101189,"02 6543 1018","Railway St, Branxton NSW 2335","Commuter car park | Emergency help point | No Opal card top up or single trip ticket sales","This location is Not Accessible | Wheelchair ramp boarding assistance | Hearing loop | PA system for announcements | Stairs",Train,6.00-10am,3.00-7pm,True
"Bredbo Coach Stop",26261,-35.955665,149.14802,10150178,,"Service Station,Monaro Hwy, Bredbo NSW 2626",,,Coach,,,False
"Brewarrina Coach Stop",28391,-29.96192,146.861301,10150252,,"Belmore St after Bathurst St, Brewarrina NSW 2839",,,Coach,,,False
"Bridge Street Light Rail",2000177,-33.864128,151.207465,10101601,,"George St, Sydney NSW 2000","Bike racks | Emergency help point | Departure indicator screen | Opal card top up or single trip ticket machine (Card Payment only)","This location is Independent Access | Hearing loop | Platform edge tactiles | Level crossing","Light rail, Taxi",6.30-10am,3.00-7pm,False
"Brisbane (Roma Street) Station",40002,-27.46577,153.018781,10155061,,"Roma St, Brisbane QLD 4000",,,"Train, Regional coach",,,False
"Broadmeadow Station",229210,-32.92301689,151.734686,10101160,"02 4962 9122","Graham Rd, Broadmeadow NSW 2292","Commuter car park | Wheelchair accessible car space | Kiss and ride stopping area | Taxi rank | Bike racks | Wheelchair accessible toilet | Baby change table | Emergency help point | Information point | Payphone | Departure indicator screen | Opal card top up or single trip ticket machine (Cash or Card Payment)","This location is Independent Access | Wheelchair ramp boarding assistance | PA system for announcements | Platform edge tactiles | Stairs | Lift","Train, Regional coach, Bus, Taxi",6.00-10am,3.00-7pm,True
"Broadwater Coach Stop",24721,-29.010026,153.435869,10150312,,"Pacific Hwy after Mathers Lane, Broadwater NSW 2472",,,Coach,,,False
"Broken Hill Station",28801,-31.959275,141.466665,10155000,"13 22 32","Crystal St, Broken Hill NSW 2880","Commuter car park | Wheelchair accessible car space | Kiss and ride stopping area | Taxi rank | Toilets | Wheelchair accessible toilet | Emergency help point | Information point","This location is Independent Access | Wheelchair ramp boarding assistance | Hearing loop | PA system for announcements | Stairs","Train, Taxi",,,False
"Broken Hill Town Coach Stop",28802,-31.960181,141.460489,10150203,,"Broken Hill Visitor Information Centre, Bromide St, Broken Hill NSW 2880",,,Coach,,,False
"Brunswick Heads Coach Stop",24832,-28.54016,153.550552,10150338,,"Brunswick Heads Information Centre, Park St, Brunswick Heads NSW 2483",,,"Coach, Bus",,,False
"Bulahdelah Coach Stop",24231,-32.409663,152.210861,10150233,,"Booloombayt St after Blanch St, Bulahdelah NSW 2423",,,Coach,,,False
"Bullaburra Station",278410,-33.72360616,150.4146074,10101265,"02 4759 1052","Great Western Hwy, Bullaburra NSW 2784","Commuter car park | Wheelchair accessible car space | Kiss and ride stopping area | Bike racks | Wheelchair accessible toilet | Baby change table | Emergency help point | Information point | Payphone | No Opal card top up or single trip ticket sales","This location is Not Accessible | Wheelchair ramp boarding assistance | PA system for announcements | Platform edge tactiles | Stairs","Train, Bus",6.00-10am,3.00-7pm,True
"Bulli Station",251610,-34.33448098,150.9147439,10101365,"02 4223 5577","Railway St, Bulli NSW 2516","Commuter car park | Wheelchair accessible car space | Kiss and ride stopping area | Taxi rank | Bike racks | Wheelchair accessible toilet | Baby change table | Emergency help point | Payphone | No Opal card top up or single trip ticket sales","This location is Independent Access | Wheelchair ramp boarding assistance | PA system for announcements | Platform edge tactiles | Lift","Train, Bus, Taxi",6.00-10am,3.00-7pm,True
"Bumbaldry Coach Stop",27942,-33.901793,148.466454,10150153,,"Tyagong Creek Rest Area, Mid Western Hwy, Bumbaldry NSW 2794",,,Coach,,,False
"Bundanoon Station",257810,-34.65613474,150.2987371,10101310,"02 4868 1115","Railway Ave, Bundanoon NSW 2578","Commuter car park | Toilets | Emergency help point | No Opal card top up or single trip ticket sales","This location is Assisted Access | Wheelchair ramp boarding assistance | PA system for announcements | Platform edge tactiles | Level crossing","Train, Bus, Regional coach",6.00-10am,3.00-7pm,True
"Bundarra Coach Stop",23591,-30.171575,151.075729,10150103,,"Bendemeer St at Oliver St, Bundarra NSW 2359",,,Coach,,,False
"Bungendore Station",26211,-35.255778,149.446409,10155034,"13 22 32","Majara St, Bungendore NSW 2621","Commuter car park | Toilets | Emergency help point | Information point","This location is Independent Access | Wheelchair ramp boarding assistance | PA system for announcements",Train,,,False
"Bungwahl Coach Stop",24234,-32.387086,152.444497,10161882,,"Bungwahl Store, The Lakes Way, Bungwahl NSW 2423",,,Coach,,,False
"Burleigh Heads Coach Stop (northbound)",42201,-28.089973,153.452729,10150242,,"Burleigh Heads Bowling Club, Gold Coast Hwy, Burleigh Heads QLD 4220",,,Coach,,,False
"Burleigh Heads Coach Stop (southbound)",42202,-28.088426,153.451792,10150243,,"Gold Coast Hwy at The Esplanade, Burleigh Heads QLD 4220",,,Coach,,,False
"Buronga Coach Stop",27391,-34.171219,142.185386,10150262,,"Hendy Rd at Murray Way, Buronga NSW 2739",,,Coach,,,False
"Burradoo Station",257620,-34.49401919,150.3983388,10101307,"02 4861 2045","Station St, Burradoo NSW 2576","Commuter car park | Wheelchair accessible car space | Emergency help point | Payphone | No Opal card top up or single trip ticket sales","This location is Assisted Access | Wheelchair ramp boarding assistance | PA system for announcements | Platform edge tactiles | Level crossing",Train,6.00-10am,3.00-7pm,True
"Burrawang Coach Stop",2577144,-34.593273,150.516609,10131090,,"Burrawang General Store, Hoddle St, Burrawang NSW 2577",,,Coach,,,False
"Burrell Creek Coach Stop",24292,-31.9522,152.2957,101500063,,"The Bucketts Way, Burrell Creek NSW 2429",,,Coach,,,False
"Burren Junction Coach Stop",23861,-30.1036,148.966504,10150201,,"Alma St after Wateloo St, Burren Junction NSW 2386",,,Coach,,,False
"Burringbar Coach Stop",24833,-28.430064,153.470608,10158234,,"Tweed Valley Way at Cudgera Creek Rd, Burringbar NSW 2483",,,Coach,,,False
"Burwood Station",213410,-33.87731465,151.1047622,10101207,"02 9752 8734","Railway Pde, Burwood NSW 2134","Kiss and ride stopping area | Taxi rank | Bike racks | Toilets | Wheelchair accessible toilet (MLAK) | Baby change table | Emergency help point | Payphone | Departure indicator screen | Opal card top up or single trip ticket machine (Card Payment only) | Opal card top up machine (Card Payment only)","This location is Independent Access | Wheelchair ramp boarding assistance | PA system for announcements | Platform edge tactiles | Stairs | Lift","Train, Bus, Taxi",6.30-10am,3.00-7pm,False
"Byrock Coach Stop",28314,-30.6632,146.4037,10150274,,"Mitchell Hwy opp Byrock Post Office, Byrock NSW 2831",,,Coach,,,False
"Byron Bay Interchange",248149,-28.644828,153.612473,10106001,,"Byron Bay Interchange, Butler St, Byron Bay NSW 2481","Toilets | Wheelchair accessible toilet | Kiss and ride stopping area | Taxi rank | Bike racks | Baby change table | Commuter car park","This location is Independent Access | Platform edge tactiles","Coach, Bus, Taxi",,,False
"Cabarita Wharf",21371,-33.84096251,151.1164853,10102031,,"Cabarita Rd, Cabarita NSW 2137","Wheelchair accessible car space | Kiss and ride stopping area | Bike racks | Bike lockers | Emergency help point | Payphone | Departure indicator screen | Opal card top up or single trip ticket machine (Card Payment only)","This location is Independent Access | Wheelchair ramp boarding assistance | Hearing loop | PA system for announcements | Wharf edge tactiles","Bus, Ferry",,,False
"Cabramatta Station",216620,-33.89486655,150.9388206,10101287,"02 9765 1644","Railway Pde, Cabramatta NSW 2166","Commuter car park | Wheelchair accessible car space | Kiss and ride stopping area | Taxi rank | Bike racks | Toilets | Wheelchair accessible toilet | Baby change table | Emergency help point | Payphone | Departure indicator screen | Opal card top up or single trip ticket machine (Cash or Card Payment)","This location is Independent Access | Wheelchair ramp boarding assistance | PA system for announcements | Platform edge tactiles | Stairs | Lift","Train, Bus, Taxi",6.30-10am,3.00-7pm,False
"Camellia Station",214210,-33.81873435,151.0243009,10101222,"02 9848 9212","Grand Ave, Camellia NSW 2142","Commuter car park | Emergency help point | Kiss and ride stopping area | Payphone | No Opal card top up or single trip ticket sales | Wheelchair accessible payphone","This location is Not Accessible | Level crossing | PA system for announcements",Train,,,False
"Campbelltown Station",256020,-34.06383549,150.813929,10101296,"02 4629 0721","Hurley St, Campbelltown NSW 2560","Commuter car park | Wheelchair accessible car space | Kiss and ride stopping area | Taxi rank | Bike racks | Bike lockers | Bike shed | Toilets | Wheelchair accessible toilet | Baby change table | Emergency help point | Payphone | Departure indicator screen | Opal card top up or single trip ticket machine (Cash or Card Payment)","This location is Independent Access | Wheelchair ramp boarding assistance | PA system for announcements | Platform edge tactiles | Stairs | Lift","Train, Bus, Taxi",6.30-10am,3.00-7pm,True
"Campsie Station",219410,-33.91048116,151.1026308,10101396,"02 9563 7440","Beamish St, Campsie NSW 2194","Commuter car park | Wheelchair accessible car space | Kiss and ride stopping area | Bike racks | Toilets | Wheelchair accessible toilet | Baby change table | Emergency help point | Payphone | Departure indicator screen | Opal card top up machine (Card Payment only)","This location is Independent Access | Wheelchair ramp boarding assistance | PA system for announcements | Platform edge tactiles | Stairs | Lift","Train, Bus, Taxi",6.30-10am,3.00-7pm,False
"Canberra Airport",3353,-35.307605,149.189465,10167989,,"Terminal Ave, Majura ACT 2609",,"This location is Independent Access |",Coach,,,False
"Canberra Calvary Hospital Bruce",4803,-35.252561,149.086931,10160157,,"Haydon Dr opp Mary Potter Cct, Bruce ACT 2617",,,Coach,,,False
"Canberra Civic Coach Stop",26011,-35.278997,149.127618,10150073,,"Canberra House, West Row, Canberra ACT 2601",,,"Coach, Bus",,,False
"Canberra Hospital Coach Stop",26051,-35.34638,149.101761,10150327,,"Bateson Rd before Palmer St, Garran ACT 2605",,,"Coach, Bus",,,False
"Canberra John James Hospital Coach Stop",26001,-35.318475,149.095764,10150034,,"Strickland Cres, Deakin ACT 2600",,,"Coach, Bus",,,False
"Canberra Station",26041,-35.319272,149.149396,10155022,"13 22 32","Burke Cres, Kingston ACT 2604","Commuter car park | Wheelchair accessible car space | Kiss and ride stopping area | Taxi rank | Bike racks | Toilets | Wheelchair accessible toilet | Baby change table | Emergency help point | Information point | Payphone | Departure indicator screen","This location is Independent Access | Wheelchair ramp boarding assistance | Hearing loop | PA system for announcements | Platform edge tactiles","Train, Regional coach, Taxi",,,False
"Canberra University",4801,-35.24116474,149.081254,10160618,,"Bimbimbie St after Corinda St, Bruce ACT 2617",,,Coach,,,False
"Canley Vale Station",216610,-33.88679793,150.943987,10101286,"02 9765 1102","Railway Pde, Canley Vale NSW 2166","Commuter car park | Wheelchair accessible car space | Kiss and ride stopping area | Taxi rank | Bike racks | Toilets | Emergency help point | Departure indicator screen | Opal card top up or single trip ticket machine (Cash or Card Payment)","This location is Not Accessible | Wheelchair ramp boarding assistance | PA system for announcements | Platform edge tactiles | Stairs","Train, Bus",6.30-10am,3.00-7pm,False
"Canowindra Coach Stop",28041,-33.56361,148.65979,10150114,,"Museum Memorial Park, Blatchford St, Canowindra NSW 2804",,,Coach,,,False
"Canterbury Station",219320,-33.91167214,151.1182133,10101395,"02 9563 7678","Canterbury Rd, Canterbury NSW 2193","Commuter car park | Wheelchair accessible car space | Kiss and ride stopping area | Bike racks | Bike lockers | Toilets | Emergency help point | Payphone | Departure indicator screen | Opal card top up or single trip ticket machine (Cash or Card Payment)","This location is Not Accessible | Wheelchair ramp boarding assistance | PA system for announcements | Platform edge tactiles | Stairs","Train, Bus",6.30-10am,3.00-7pm,False
"Capertee Coach Stop",28461,-33.146391,149.984257,10150313,,"Castlereagh Hwy opp Glen Davis Rd, Capertee NSW 2846",,,Coach,,,False
"Capitol Square Light Rail",2000200,-33.87975438,151.2056556,10101442,,"Hay St, Haymarket NSW 2000","Emergency help point | Opal card top up or single trip ticket machine (Card Payment only)","This location is Independent Access | PA system for announcements | Platform edge tactiles","Light rail",6.30-10am,3.00-7pm,False
"Carcoar Coach Stop",27911,-33.611524,149.140096,10150014,,"Icely St opp South Belubula St, Carcoar NSW 2791",,,Coach,,,False
"Cardiff Station",228520,-32.94182388,151.6629801,10101157,"02 4962 9437","Main Rd, Cardiff NSW 2285","Commuter car park | Wheelchair accessible car space | Kiss and ride stopping area | Taxi rank | Bike racks | Wheelchair accessible toilet | Baby change table | Emergency help point | Payphone | Opal card top up or single trip ticket machine (Cash or Card Payment)","This location is Independent Access | Wheelchair ramp boarding assistance | PA system for announcements | Platform edge tactiles | Stairs | Lift","Train, Bus, Taxi",6.00-10am,3.00-7pm,True
"Caringbah Station",222910,-34.04161039,151.1227476,10101349,"02 9522 1249","The Kingsway, Caringbah NSW 2229","Commuter car park | Wheelchair accessible car space | Kiss and ride stopping area | Taxi rank | Bike racks | Bike shed | Toilets | Wheelchair accessible toilet (MLAK) | Baby change table | Emergency help point | Payphone | Departure indicator screen | Opal card top up or single trip ticket machine (Card Payment only)","This location is Independent Access | Wheelchair ramp boarding assistance | Hearing loop | PA system for announcements | Platform edge tactiles | Stairs | Lift","Train, Bus, Taxi",6.30-10am,3.00-7pm,False
"Carlton Station",221810,-33.96826632,151.1243369,10101337,"02 9563 7612","Railway Pde, Carlton NSW 2218","Commuter car park | Wheelchair accessible car space | Kiss and ride stopping area | Taxi rank | Toilets | Wheelchair accessible toilet | Baby change table | Emergency help point | Payphone | Departure indicator screen | Opal card top up or single trip ticket machine (Card Payment only)","This location is Independent Access | Wheelchair ramp boarding assistance | PA system for announcements | Platform edge tactiles | Stairs | Lift","Train, Bus, Taxi",6.30-10am,3.00-7pm,False
"Carramar Station",216330,-33.88431779,150.9615486,10101408,"02 9765 1168","Wattle Ave, Carramar NSW 2163","Commuter car park | Wheelchair accessible car space | Kiss and ride stopping area | Bike racks | Toilets | Emergency help point | Payphone | Departure indicator screen | Opal card top up or single trip ticket machine (Cash or Card Payment)","This location is Not Accessible | Wheelchair ramp boarding assistance | Hearing loop | PA system for announcements | Platform edge tactiles | Stairs",Train,6.30-10am,3.00-7pm,False
"Carrathool turnoff Coach Stop",27112,-34.466659,145.416181,10150095,,"Sturt Hwy at Carrathool Rd, Carrathool NSW 2711",,,Coach,,,False
"Casino Station",24701,-28.860663,153.038275,10155062,"13 22 32","Canterbury St, Casino NSW 2470","Commuter car park | Wheelchair accessible car space | Toilets | Wheelchair accessible toilet | Baby change table | Emergency help point | Information point | Payphone | Departure indicator screen","This location is Independent Access | Wheelchair ramp boarding assistance | Hearing loop | PA system for announcements | Platform edge tactiles","Train, Regional coach, Taxi",,,False
"Castle Hill Bus Interchange",2154190,-33.7321484,151.0064202,10148755,,"Old Castle Hill Rd, Castle Hill NSW 2154","Taxi rank | Toilets",,"Bus, Taxi",6.30-10am,3.00-7pm,False
"Castle Hill Station",2154391,-33.731485,151.007809,10104002,,"Old Northern Rd, Castle Hill NSW 2154","Bike shed | Bike racks | Kiss and ride stopping area | Taxi rank | Opal card top up or single trip ticket machine (Cash or Card Payment) | Toilets | Wheelchair accessible toilet | Emergency help point | Payphone","This location is Independent Access | Lift | Escalator | Hearing loop | Wheelchair ramp boarding assistance | Platform edge tactiles | PA system for announcements","Metro, Bus, Taxi",6.30-10am,3.00-7pm,False
"Casula Station",217030,-33.94981838,150.911946,10101290,"02 9765 1655","Rushton Pl, Casula NSW 2170","Commuter car park | Wheelchair accessible car space | Kiss and ride stopping area | Emergency help point | Information point | Departure indicator screen | No Opal card top up or single trip ticket sales","This location is Independent Access | Wheelchair ramp boarding assistance | Hearing loop | PA system for announcements | Platform edge tactiles | Stairs | Lift",Train,6.30-10am,3.00-7pm,False
"Central Station",200060,-33.88388163,151.2058293,10101100,"02 9379 1777","Eddy Ave, Haymarket NSW 2000","Wheelchair accessible car space | Kiss and ride stopping area | Taxi rank | Bike racks | Toilets | Wheelchair accessible toilet | Wheelchair accessible toilet (MLAK) | Baby change table | Emergency help point | Payphone | Free WiFi hotspot | Departure indicator screen | Luggage storage | Opal card top up or single trip ticket machine (Cash or Card Payment) | Opal card top up machine (Card Payment only)","This location is Independent Access | Wheelchair ramp boarding assistance | PA system for announcements | Platform edge tactiles | Stairs | Lift | Escalator","Train, Bus, Light rail, Taxi",6.30-10am,3.00-7pm,True
"Charbon Coach Stop",28482,-32.880988,149.965112,10150282,,"Cooper Dr opp Cement Ave, Charbon NSW 2848",,,Coach,,,False
"Chatswood Station",206710,-33.79713406,151.1808207,10101117,"02 9379 3311","Cnr Railway St & Victoria Ave, Chatswood NSW 2067","Bike lockers | Bike racks | Emergency help point | Kiss and ride stopping area | Payphone | Opal card top up or single trip ticket machine (Cash or Card Payment) | Toilets | Wheelchair accessible payphone | Wheelchair accessible toilet (MLAK) | Baby change table | Taxi rank","This location is Independent Access | Escalator | Hearing loop | Lift | Wheelchair ramp boarding assistance | Stairs | Platform edge tactiles | PA system for announcements","Metro, Train, Bus, Taxi",6.30-10am,3.00-7pm,True
"Chatsworth Island Coach Stop",24699,-29.381595,153.233697,10158769,,"Chatsworth Rd opp Chatsworth Island General Store, Chatsworth NSW 2469",,,Coach,,,False
"Cheltenham Station",211920,-33.75586837,151.0788513,10101198,"02 9847 8417","Sutherland Rd, Cheltenham NSW 2119","Commuter car park | Wheelchair accessible car space | Kiss and ride stopping area | Bike racks | Toilets | Wheelchair accessible toilet | Baby change table | Emergency help point | Payphone | Departure indicator screen | Opal card top up or single trip ticket machine (Card Payment only)","This location is Independent Access | Wheelchair ramp boarding assistance | Hearing loop | PA system for announcements | Platform edge tactiles | Stairs | Lift",Train,6.30-10am,3.00-7pm,False
"Cherrybrook Station",2126158,-33.736703,151.031977,10104001,,"Bradfield Pde, Cherrybrook NSW 2126","Bike shed | Bike racks | Commuter car park | Kiss and ride stopping area | Taxi rank | Opal card top up or single trip ticket machine (Cash or Card Payment) | Toilets | Wheelchair accessible toilet | Emergency help point | Payphone","This location is Independent Access | Lift | Hearing loop | Wheelchair ramp boarding assistance | Platform edge tactiles | PA system for announcements | Stairs","Metro, Bus, Taxi",6.30-10am,3.00-7pm,False
"Chester Hill Station",216220,-33.8835435,150.9994456,10101405,"02 9379 7703","Chester Hill Rd, Chester Hill NSW 2162","Kiss and ride stopping area | Taxi rank | Bike racks | Toilets | Emergency help point | Payphone | Departure indicator screen | Opal card top up or single trip ticket machine (Cash or Card Payment)","This location is Not Accessible | Wheelchair ramp boarding assistance | Hearing loop | PA system for announcements | Platform edge tactiles | Stairs","Train, Bus, Taxi",6.30-10am,3.00-7pm,False
"Chinatown Light Rail",2000169,-33.878579,151.205567,10101605,,"George St, Haymarket NSW 2000","Bike racks | Emergency help point | Departure indicator screen | Opal card top up or single trip ticket machine (Card Payment only)","This location is Independent Access | Hearing loop | Platform edge tactiles | Level crossing","Light rail, Taxi",6.30-10am,3.00-7pm,False
"Chinderah Coach Stop (northbound)",24871,-28.233483,153.555962,10150148,,"Oxley Park, Chindera Bay Dr, Chinderah NSW 2487",,,Coach,,,False
"Chinderah Coach Stop (southbound)",24872,-28.232443,153.556665,10158235,,"Chindera Bay Dr opp Hacienda Caravan Park, Chinderah NSW 2487",,,Coach,,,False
"Chiswick Wharf",2046159,-33.84554855,151.1417808,10102012,,"Bortfield Dr, Chiswick NSW 2046","Wheelchair accessible car space | Kiss and ride stopping area | Bike racks | Emergency help point | Departure indicator screen | No Opal card top up or single trip ticket sales","This location is Independent Access | Wheelchair ramp boarding assistance | Hearing loop | PA system for announcements | Wharf edge tactiles | Stairs","Bus, Ferry",,,False
"Circular Quay Station",200020,-33.86132358,151.2103898,10101103,"02 9224 3553","Alfred St, Sydney NSW 2000","Kiss and ride stopping area | Taxi rank | Bike racks | Toilets | Wheelchair accessible toilet | Baby change table | Emergency help point | Payphone | Departure indicator screen | Opal card top up or single trip ticket machine (Cash or Card Payment) | Opal card top up machine (Card Payment only)","This location is Independent Access | Wheelchair ramp boarding assistance | PA system for announcements | Platform edge tactiles | Stairs | Lift | Escalator","Train, Bus, Ferry, Light rail, Taxi",6.30-10am,3.00-7pm,False
"Civic Light Rail",2300133,-32.927024,151.771687,10101502,,"Hunter St, Newcastle NSW 2300","Emergency help point | Opal card top up or single trip ticket machine (Cash or Card Payment)","This location is Independent Access | Hearing loop | PA system for announcements | Platform edge tactiles | Level crossing","Light rail",6.30-10am,3.00-7pm,False
"Clandulla Coach Stop",28484,-32.903535,149.946374,10150288,,"Mead St after Neville St, Clandulla NSW 2848",,,Coach,,,False
"Clarendon Station",275630,-33.60895245,150.7885628,10101243,"02 9851 7249","Racecourse Rd, Clarendon NSW 2756","Commuter car park | Wheelchair accessible car space | Toilets | Emergency help point | Payphone | Departure indicator screen | No Opal card top up or single trip ticket sales","This location is Assisted Access | Wheelchair ramp boarding assistance | PA system for announcements | Platform edge tactiles | Level crossing | Stairs",Train,6.30-10am,3.00-7pm,False
"Clunes Coach Stop",24804,-28.731116,153.405844,10150140,,"Clunes General Store, Main St, Clunes NSW 2480",,,Coach,,,False
"Clyde Station",214230,-33.83628176,151.0174895,10101220,"02 9848 9212","Berry St, Granville NSW 2142","Kiss and ride stopping area | Toilets | Emergency help point | Payphone | Departure indicator screen | Opal card top up or single trip ticket machine (Cash or Card Payment)","This location is Not Accessible | Wheelchair ramp boarding assistance | PA system for announcements | Platform edge tactiles | Stairs | Stair lift",Train,6.30-10am,3.00-7pm,False
"Coalcliff Station",250850,-34.24225043,150.9772427,10101359,"02 4223 5569","Lawrence Hargrave Dr, Coalcliff NSW 2508","Commuter car park | Toilets | Emergency help point | Payphone | No Opal card top up or single trip ticket sales","This location is Not Accessible | Wheelchair ramp boarding assistance | Hearing loop | PA system for announcements | Stairs","Train, Bus",6.00-10am,3.00-7pm,True
"Cobar Coach Stop",283515,-31.498306,145.83831,10150125,,"Linsley St at Marshall St, Cobar NSW 2835",,,"Coach, Taxi",,,False
"Cobbadah Coach Stop",23471,-30.230845,150.577905,10150016,,"Cobbadah Rd after Horton Rd, Cobbadah NSW 2347",,,Coach,,,False
"Cobram Coach Stop",364410,-35.920883,145.645189,10150302,,"Cobram Station, Punt Rd, Cobram VIC 3644",,,Coach,,,False
"Cockatoo Island Wharf",20009,-33.84559502,151.1732389,10102002,,NSW,"Bike racks | Emergency help point | Departure indicator screen | Opal card top up or single trip ticket machine (Card Payment only)","This location is Independent Access | Wheelchair ramp boarding assistance | Hearing loop | PA system for announcements | Wharf edge tactiles",Ferry,,,False
"Cockle Creek Station",228430,-32.94270992,151.6233813,10101155,"02 4962 9437","Lake Rd, Boolaroo NSW 2284","Commuter car park | Emergency help point | No Opal card top up or single trip ticket sales","This location is Not Accessible | Wheelchair ramp boarding assistance | PA system for announcements | Stairs","Train, Bus",6.00-10am,3.00-7pm,True
"Coffs Harbour Health Campus Coach Stop",2450148,-30.316983,153.093499,10155493,,"Coffs Harbour Health Campus, Main Hospital Entrance, Coffs Harbour NSW 2450",,,"Regional coach, Bus",,,False
"Coffs Harbour Park Beach Plaza Coach Stop",245021,-30.281951,153.131421,10155504,,"Park Beach Plaza, Access Rd, Coffs Harbour NSW 2450",,,"Regional coach, Bus",,,False
"Coffs Harbour Station",24501,-30.3052,153.138175,10155060,"13 22 32","Angus McLeod Pl, Coffs Harbour NSW 2450","Commuter car park | Wheelchair accessible car space | Kiss and ride stopping area | Taxi rank | Bike racks | Toilets | Wheelchair accessible toilet | Baby change table | Emergency help point | Information point | Payphone | Departure indicator screen","This location is Independent Access | Wheelchair ramp boarding assistance | Hearing loop | Hearing loop (ticket counter) | PA system for announcements | Platform edge tactiles | Stairs","Train, Taxi",,,False
"Coledale Station",251530,-34.28938913,150.9433353,10101423,"02 4223 5573","Cater St, Coledale NSW 2515","Commuter car park | Toilets | Emergency help point | No Opal card top up or single trip ticket sales","This location is Not Accessible | Wheelchair ramp boarding assistance | Hearing loop | PA system for announcements | Platform edge tactiles | Stairs","Train, Taxi",6.00-10am,3.00-7pm,True
"Collaroy B-Line",209742,-33.731811,151.301239,10115360,,"Pittwater Rd, Collaroy NSW 2097","Bike racks | Departure indicator screen","This location is Independent Access |",Bus,6.30-10am,3.00-7pm,False
"Como Station",222610,-34.00426616,151.0679988,10101343,"02 9522 1244","Como Pde, Como NSW 2226","Commuter car park | Wheelchair accessible car space | Kiss and ride stopping area | Bike racks | Bike lockers | Toilets | Wheelchair accessible toilet | Baby change table | Emergency help point | Information point | Payphone | Departure indicator screen | Opal card top up or single trip ticket machine (Card Payment only)","This location is Independent Access | Wheelchair ramp boarding assistance | PA system for announcements | Hearing loop | Platform edge tactiles | Stairs | Lift",Train,6.30-10am,3.00-7pm,False
"Concord West Station",213810,-33.84873998,151.0856262,10101204,"02 9752 8421","Queen St, Concord West NSW 2138","Commuter car park | Wheelchair accessible car space | Kiss and ride stopping area | Bike racks | Bike lockers | Wheelchair accessible toilet | Baby change table | Emergency help point | Payphone | Departure indicator screen | Opal card top up or single trip ticket machine (Cash or Card Payment)","This location is Independent Access | Wheelchair ramp boarding assistance | PA system for announcements | Platform edge tactiles | Stairs | Lift",Train,6.30-10am,3.00-7pm,False
"Condobolin Station",28772,-33.08391,147.153285,10155039,"13 22 32","Denison St, Condobolin NSW 2877","Commuter car park","This location is Independent Access | Wheelchair ramp boarding assistance | Hearing loop | PA system for announcements",Train,,,False
"Condobolin Town Coach Stop",28773,-33.090038,147.147115,10150280,,"Condobolin Bowling Club, William St, Condobolin NSW 2877",,,Coach,,,False
"Coniston Station",250030,-34.43745489,150.8855292,10101373,"02 4223 5529","Gladstone Ave, Coniston NSW 2500","Commuter car park | Wheelchair accessible car space | Taxi rank | Bike lockers | Toilets | Emergency help point | Information point | Payphone | No Opal card top up or single trip ticket sales","This location is Not Accessible | Wheelchair ramp boarding assistance | PA system for announcements | Stairs","Train, Bus, Taxi",6.00-10am,3.00-7pm,True
"Convention Light Rail",2000204,-33.87262846,151.198123,10101439,,"Darling Dr, Sydney NSW 2000","Emergency help point | Opal card top up or single trip ticket machine (Card Payment only)","This location is Independent Access | PA system for announcements | Platform edge tactiles | Level crossing","Light rail",6.30-10am,3.00-7pm,False
"Coolabah Coach Stop",28317,-31.027687,146.713126,10150270,,"Gaffneys Store, Mitchell Hwy, Coolabah NSW 2831",,,Coach,,,False
"Coolac Coach Stop",27271,-34.929046,148.166247,10150122,,"General Store, Hume Hwy, Coolac NSW 2727",,,Coach,,,False
"Coolah Coach Stop",28431,-31.825022,149.718902,10150108,,"Binnia St before Booyamurra St, Coolah NSW 2843",,,Coach,,,False
"Coolamon Coach Stop",27012,-34.815817,147.199995,10150002,,"Coolamon Post Office, Cowabbie St, Coolamon NSW 2701",,"This location is Independent Access |",Coach,,,False
"Coolamon Station",27011,-34.816045,147.201858,10155041,"13 22 32","Wade St, Coolamon NSW 2701","Commuter car park | Wheelchair accessible car space","This location is Assisted Access | Wheelchair ramp boarding assistance | Hearing loop | PA system for announcements",Train,,,False
"Cooma Coach Stop",263027,-36.234146,149.126521,10150008,,"Centennial Park, Bombala St, Cooma NSW 2630",,,Coach,,,False
"Coonabarabran Coach Stop",23571,-31.279073,149.279362,10150077,,"Coonabarabran Visitor Information Centre, Newell Hwy, Coonabarabran NSW 2357",,,Coach,,,False
"Coonamble Coach Stop",28292,-30.955843,148.389184,10150135,,"Castlereagh Hwy opp Namoi St, Coonamble NSW 2829",,,Coach,,,False
"Coopernook Coach Stop",24261,-31.824628,152.612831,10157155,,"Macquarie St at Mitchell Cl, Coopernook NSW 2426",,,"Regional coach, Bus",,,False
"Cootamundra Station",25901,-34.641038,148.030649,10155050,"13 22 32","Hovell St, Cootamundra NSW 2590","Commuter car park | Wheelchair accessible car space | Kiss and ride stopping area | Toilets | Wheelchair accessible toilet | Emergency help point | Information point | Payphone | Departure indicator screen","This location is Independent Access | Wheelchair ramp boarding assistance | Hearing loop | PA system for announcements | Platform edge tactiles | Stairs","Train, Regional coach, Taxi",,,False
"Corowa Coach Stop",26461,-35.998779,146.391492,10150037,,"River St at Sanger St, Corowa NSW 2646",,,Coach,,,False
"Corrimal Station",251820,-34.37572692,150.9049716,10101368,"02 4223 5580","Murray Rd, Corrimal NSW 2518","Commuter car park | Wheelchair accessible car space | Kiss and ride stopping area | Bike racks | Bike lockers | Toilets | Wheelchair accessible toilet | Baby change table | Emergency help point | Payphone | No Opal card top up or single trip ticket sales","This location is Assisted Access | Wheelchair ramp boarding assistance | PA system for announcements | Platform edge tactiles | Level crossing","Train, Taxi",6.00-10am,3.00-7pm,True
"Cowan Station",208120,-33.59310763,151.1717177,10101132,"02 9847 8496","Pacific Hwy, Cowan NSW 2081","Commuter car park | Bike racks | Toilets | Emergency help point | Information point | Payphone | Free WiFi hotspot | No Opal card top up or single trip ticket sales","This location is Assisted Access | Wheelchair ramp boarding assistance | Hearing loop | PA system for announcements | Platform edge tactiles | Level crossing | Stairs",Train,6.00-10am,3.00-7pm,True
"Cowper Coach Stop",24604,-29.573336,153.073751,10150089,,"Pacific Hwy at Telegraph St, Cowper NSW 2460",,,Coach,,,False
"Cowra Coach Stop",27941,-33.834717,148.688777,10150157,,"Macquarie St at Kendal St, Cowra NSW 2794",,,Coach,,,False
"Craboon Junction Coach Stop",284421,-32.03896,149.476512,10150123,,"Castlereagh Hwy before Golden Hwy, Dunedoo NSW 2844",,,Coach,,,False
"Craven Coach Stop",24225,-32.1575,151.9494,10150189,,"3065 The Bucketts Way, Craven NSW 2422",,,Coach,,,False
"Cremorne Point Wharf",209037,-33.84787838,151.2308584,10102025,,"Milson Rd, Cremorne Point NSW 2090","Wheelchair accessible car space | Kiss and ride stopping area | Bike racks | Emergency help point | Payphone | Departure indicator screen | Opal card top up or single trip ticket machine (Card Payment only)","This location is Independent Access | Wheelchair ramp boarding assistance | Hearing loop | PA system for announcements | Wharf edge tactiles","Bus, Ferry",,,False
"Cringila Station",250520,-34.46717554,150.8784228,10101375,"02 4223 5694","Five Islands Rd, Port Kembla NSW 2505","Commuter car park | Toilets | Emergency help point | Information point | Payphone | No Opal card top up or single trip ticket sales","This location is Not Accessible | Wheelchair ramp boarding assistance | Hearing loop | PA system for announcements | Stairs","Train, Bus",6.00-10am,3.00-7pm,True
"Cronulla Station",223020,-34.05625171,151.1515424,10101351,"02 9522 1245","Cronulla St, Cronulla NSW 2230","Commuter car park | Wheelchair accessible car space | Kiss and ride stopping area | Taxi rank | Bike racks | Toilets | Wheelchair accessible toilet (MLAK) | Baby change table | Emergency help point | Payphone | Departure indicator screen | Opal card top up or single trip ticket machine (Cash or Card Payment)","This location is Independent Access | Wheelchair ramp boarding assistance | PA system for announcements | Platform edge tactiles","Train, Bus, Ferry, Taxi",6.30-10am,3.00-7pm,False
"Crown Street Light Rail",2300134,-32.926418,151.77715,10101503,,"Hunter St, Newcastle NSW 2300","Emergency help point | Opal card top up or single trip ticket machine (Cash or Card Payment)","This location is Independent Access | Hearing loop | PA system for announcements | Platform edge tactiles | Level crossing","Light rail",6.30-10am,3.00-7pm,False
"Croydon Station",213210,-33.88323425,151.1154882,10101208,"02 9752 8529","Meta St, Croydon NSW 2132","Commuter car park | Wheelchair accessible car space | Kiss and ride stopping area | Bike racks | Toilets | Wheelchair accessible toilet | Baby change table | Emergency help point | Payphone | Departure indicator screen | Opal card top up or single trip ticket machine (Card Payment only)","This location is Independent Access | Wheelchair ramp boarding assistance | PA system for announcements | Platform edge tactiles | Stairs | Lift",Train,6.30-10am,3.00-7pm,False
"Cudal Coach Stop",28641,-33.286363,148.739524,10150019,,"Main St opp Cudal Post Office, Cudal NSW 2864",,,Coach,,,False
"Culcairn Station",26601,-35.666107,147.038128,10155032,"13 22 32","Balfour St, Culcairn NSW 2660","Commuter car park | Toilets | Emergency help point | Information point","This location is Independent Access | Wheelchair ramp boarding assistance | PA system for announcements","Train, Coach",,,False
"Cullen Bullen Coach Stop",2790135,-33.299749,150.032939,10150234,,"Cullen Bullen Public School, Castlereagh Hwy, Cullen Bullen NSW 2790",,,Coach,,,False
"Cundletown Coach Stop",243063,-31.899585,152.51905,10157694,,"Soldiers Memorial Hall, Main St, Cundletown NSW 2430",,,"Regional coach, Bus",,,False
"Dalgety Coach Stop",26283,-36.50329,148.834386,10161934,,"Campbell St at Briely St, Dalgety NSW 2628",,,Coach,,,False
"Dapto Station",253020,-34.49209044,150.7923283,10101425,"02 4223 5544","Station St, Dapto NSW 2530","Commuter car park | Wheelchair accessible car space | Kiss and ride stopping area | Taxi rank | Bike racks | Bike lockers | Toilets | Wheelchair accessible toilet | Emergency help point | Payphone | Departure indicator screen | Opal card top up or single trip ticket machine (Cash or Card Payment)","This location is Assisted Access | Wheelchair ramp boarding assistance | PA system for announcements | Platform edge tactiles | Level crossing","Train, Bus, Coach, Taxi",6.00-10am,3.00-7pm,True
"Darawank Coach Stop",2428168,-32.091869,152.478783,10158276,,"The Lakes Way before Failford Rd, Darawank NSW 2428",,,"Regional coach, Bus",,,False
"Darling Harbour - Wharf 1 and 2",2000270,-33.866467,151.201175,10102052,,"Lime St, Sydney NSW 2000","Emergency help point | Opal card top up machine (Card Payment only) | No Opal card top up or single trip ticket sales | Taxi rank","This location is Independent Access | Wheelchair ramp boarding assistance | PA system for announcements | Stairs","Bus, Ferry, Taxi",,,False
"Darling Harbour, Aquarium Wharf",2000268,-33.86974,151.201214,10102040,,"Pyrmont NSW 2000",,"This location is Independent Access | Wheelchair ramp boarding assistance | PA system for announcements",Ferry,,,False
"Darling Harbour, Convention Center Wharf",2000280,-33.872469,151.199652,10103033,,"Pyrmont NSW 2000",,"This location is Independent Access | Wheelchair ramp boarding assistance | Wharf edge tactiles | Stairs",Ferry,,,False
"Darling Harbour, Pier 26",2000269,-33.870136,151.201881,10102054,,"Pyrmont NSW 2000",,"This location is Not Accessible | Wheelchair ramp boarding assistance | Stairs",Ferry,,,False
"Darling Point Wharf",202727,-33.8664518,151.2394906,10102034,,"Darling Point Rd, Darling Point NSW 2027","Bike racks | Emergency help point | Departure indicator screen | No Opal card top up or single trip ticket sales","This location is Not Accessible | Wheelchair ramp boarding assistance | Hearing loop | PA system for announcements | Stairs",Ferry,,,False
"Darlington Point Coach Stop",27061,-34.567662,146.000244,10150261,,"Bridge St opp Stock St, Darlington Point NSW 2706",,,Coach,,,False
"Darnick Station",28781,-32.851214,143.624896,10155004,"13 22 32","Ivanhoe Menindee Rd, Ivanhoe NSW 2878",,"This location is Not Accessible | Wheelchair ramp boarding assistance | Stairs",Train,,,False
"Dee Why B-Line",2099207,-33.752971,151.286433,10119206,,"Pittwater Rd, Dee Why NSW 2099","Transport Park&Ride | Wheelchair accessible car space | Departure indicator screen","This location is Independent Access |","Bus, Taxi",6.30-10am,3.00-7pm,False
"Deepwater Coach Stop",23711,-29.4383,151.8471,10150360,,"New England Hwy at Bourke St, Deepwater NSW 2371",,,Coach,,,False
"Delungra Coach Stop",24031,-29.654333,150.830022,10161847,,"Inverell St at Gunnee St, Delungra NSW 2403",,,Coach,,,False
"Deniliquin Coach Stop",27101,-35.52882,144.96153,10150040,,"Gorman Park, Whitelock St, Deniliquin NSW 2710",,,Coach,,,False
"Denistone Station",211410,-33.79990618,151.0875503,10101200,"02 9752 8461","West Pde, Denistone NSW 2114","Commuter car park | Bike racks | Toilets | Emergency help point | Payphone | Departure indicator screen | Opal card top up or single trip ticket machine (Card Payment only)","This location is Not Accessible | Wheelchair ramp boarding assistance | PA system for announcements | Platform edge tactiles | Stairs",Train,6.30-10am,3.00-7pm,False
"Derriwong Coach Stop",28776,-33.097654,147.335882,10150285,,"Condobolin Rd, Derriwong, Derriwong NSW 2877",,,Coach,,,False
"Domestic Airport Station",202020,-33.93365963,151.1807857,10101331,,"Keith Smith Ave, Domestic Ariport, Mascot NSW 2020","Kiss and ride stopping area | Taxi rank | Toilets | Wheelchair accessible toilet | Baby change table | Emergency help point | Payphone | Departure indicator screen | Opal card top up or single trip ticket machine (Cash or Card Payment) | Opal card top up or single trip ticket machine (Card Payment only) | Opal card top up machine (Card Payment only)","This location is Independent Access | Wheelchair ramp boarding assistance | Hearing loop (ticket counter) | PA system for announcements | Platform edge tactiles | Stairs | Lift | Escalator","Train, Bus, Taxi",6.30-10am,3.00-7pm,False
"Doonside Station",276710,-33.76398502,150.8683521,10101246,"02 9851 7218","Doonside Cres, Doonside NSW 2767","Commuter car park | Kiss and ride stopping area | Taxi rank | Bike lockers | Toilets | Emergency help point | Payphone | Departure indicator screen | Opal card top up or single trip ticket machine (Card Payment only)","This location is Not Accessible | Wheelchair ramp boarding assistance | PA system for announcements | Platform edge tactiles | Stairs","Train, Bus, Taxi",6.30-10am,3.00-7pm,False
"Dora Creek Station",226420,-33.08318747,151.5011621,10101149,"02 4349 9241","Wamsley St, Dora Creek NSW 2264","Commuter car park | Emergency help point | Information point | No Opal card top up or single trip ticket sales","This location is Not Accessible | Wheelchair ramp boarding assistance | Hearing loop | PA system for announcements | Stairs","Train, Bus",6.00-10am,3.00-7pm,True
"Double Bay Wharf",202823,-33.87334922,151.2425813,10102003,,"Bay St, Double Bay NSW 2028","Wheelchair accessible car space | Bike racks | Emergency help point | Departure indicator screen","This location is Not Accessible | Wheelchair ramp boarding assistance | Hearing loop | PA system for announcements | Stairs",Ferry,,,False
"Douglas Park Station",256910,-34.18322665,150.7099378,10101300,"02 4677 1402","Camden Rd, Douglas Park NSW 2569","Emergency help point | Payphone | No Opal card top up or single trip ticket sales","This location is Assisted Access | Wheelchair ramp boarding assistance | Hearing loop | PA system for announcements | Level crossing",Train,6.00-10am,3.00-7pm,True
"Drummoyne Wharf",204761,-33.84548995,151.1570955,10102013,,"Wolseley St, Drummoyne NSW 2047","Kiss and ride stopping area | Emergency help point | Payphone | Departure indicator screen | No Opal card top up or single trip ticket sales","This location is Independent Access | Wheelchair ramp boarding assistance | Hearing loop | PA system for announcements | Wharf edge tactiles",Ferry,,,False
"Dubbo Station",28301,-32.245012,148.608182,10155006,"13 22 32","148 Talbragar St, Dubbo NSW 2830","Commuter car park | Wheelchair accessible car space | Taxi rank | Toilets | Wheelchair accessible toilet | Emergency help point | Information point | Payphone | Departure indicator screen","This location is Independent Access | Wheelchair ramp boarding assistance | Hearing loop | PA system for announcements","Train, Regional coach, Taxi",,,False
"Dulwich Grove Light Rail",220355,-33.9050373,151.1390126,10101461,,"New Canterbury Rd, Dulwich Hill NSW 2203","Bike racks | Emergency help point","This location is Independent Access | Hearing loop | PA system for announcements | Platform edge tactiles | Level crossing | Stairs | Lift","Light rail",6.30-10am,3.00-7pm,False
"Dulwich Hill Light Rail",220359,-33.91030497,151.1400854,10101462,,"Bedford Cres, Dulwich Hill NSW 2203","Bike racks | Emergency help point","This location is Independent Access | Hearing loop | PA system for announcements | Level crossing | Stairs | Lift","Train, Light rail",6.30-10am,3.00-7pm,False
"Dulwich Hill Station",220310,-33.91110223,151.1409894,10101393,"02 9563 7595","Wardell Rd, Dulwich Hill NSW 2203","Commuter car park | Wheelchair accessible car space | Kiss and ride stopping area | Taxi rank | Bike racks | Toilets | Emergency help point | Payphone | Departure indicator screen | Opal card top up or single trip ticket machine (Cash or Card Payment)","This location is Not Accessible | Wheelchair ramp boarding assistance | PA system for announcements | Platform edge tactiles | Stairs","Train, Bus, Light rail",6.30-10am,3.00-7pm,False
"Dundee Coach Stop",237021,-29.5696,151.8659,10150345,,"New England Hwy opp Severn River Rd, Dundee NSW 2370",,,Coach,,,False
"Dunedoo Coach Stop",28441,-32.015794,149.396238,10150162,,"Rear of Milling Lions Park, Bolaro St, Dunedoo NSW 2844",,,Coach,,,False
"Dungog Station",242010,-32.4022901,151.7595395,10101186,"02 4962 9512","Brown St, Dungog NSW 2420","Commuter car park | Wheelchair accessible car space | Toilets | Emergency help point | Information point | Payphone | No Opal card top up or single trip ticket sales","This location is Assisted Access | Wheelchair ramp boarding assistance | Hearing loop | PA system for announcements | Level crossing | Stairs","Train, Bus",6.00-10am,3.00-7pm,True
"East Hills Station",221320,-33.96160677,150.9848973,10101419,"02 9563 7774","Park Rd, East Hills NSW 2213","Commuter car park | Wheelchair accessible car space | Kiss and ride stopping area | Taxi rank | Bike racks | Bike lockers | Toilets | Wheelchair accessible toilet | Baby change table | Emergency help point | Departure indicator screen | Opal card top up or single trip ticket machine (Cash or Card Payment)","This location is Independent Access | Wheelchair ramp boarding assistance | PA system for announcements | Platform edge tactiles | Stairs | Lift","Train, Bus, Taxi",6.30-10am,3.00-7pm,False
"East Maitland Station",232330,-32.74487523,151.5874213,10101176,"02 4985 7449","Melbourne St, East Maitland NSW 2323","Commuter car park | Toilets | Emergency help point | Information point | Payphone | No Opal card top up or single trip ticket sales","This location is Not Accessible | Wheelchair ramp boarding assistance | Hearing loop | PA system for announcements | Stairs",Train,6.00-10am,3.00-7pm,True
"East Richmond Station",275310,-33.60179614,150.759234,10101244,"02 9851 7248","Bourke St, Richmond NSW 2753","Commuter car park | Wheelchair accessible car space | Wheelchair accessible toilet | Baby change table | Emergency help point | Information point | Departure indicator screen | No Opal card top up or single trip ticket sales","This location is Independent Access | Wheelchair ramp boarding assistance | PA system for announcements | Platform edge tactiles | Level crossing | Stairs","Train, Bus",6.30-10am,3.00-7pm,False
"Eastwood Station",212210,-33.7900214,151.0822335,10101199,"02 9752 8493","West Pde, Eastwood NSW 2122","Commuter car park | Wheelchair accessible car space | Kiss and ride stopping area | Taxi rank | Bike racks | Bike shed | Toilets | Wheelchair accessible toilet (MLAK) | Baby change table | Emergency help point | Payphone | Departure indicator screen | Opal card top up or single trip ticket machine (Card Payment only) | Opal card top up machine (Card Payment only)","This location is Independent Access | Wheelchair ramp boarding assistance | Hearing loop | PA system for announcements | Platform edge tactiles | Stairs | Lift","Train, Bus, Taxi",6.30-10am,3.00-7pm,False
"Echuca Coach Stop",35641,-36.124102,144.751933,10150248,,"Echuca Moama Visitor Information Centre, Heygarth St, Echuca VIC 3564",,,Coach,,,False
"Eden Coach Stop",25511,-37.065712,149.906725,10150351,,"Twofold Arcade, Imlay St, Eden NSW 2551",,,"Coach, Bus",,,False
"Edgecliff Station",202710,-33.87925148,151.2361614,10101108,"02 9379 4652","New South Head Rd, Edgecliff NSW 2027","Kiss and ride stopping area | Taxi rank | Bike racks | Bike shed | Toilets | Wheelchair accessible toilet (MLAK) | Baby change table | Emergency help point | Payphone | Departure indicator screen | Opal card top up or single trip ticket machine (Cash or Card Payment) | Opal card top up machine (Card Payment only)","This location is Independent Access | Wheelchair ramp boarding assistance | Hearing loop | PA system for announcements | Platform edge tactiles | Stairs | Lift | Escalator","Train, Bus, Taxi",6.30-10am,3.00-7pm,True
"Edmondson Park Station",217426,-33.9693,150.8587,10101447,"02 9765 1451","Soldiers Pde, Edmondson Park NSW 2174","Commuter car park | Wheelchair accessible car space | Kiss and ride stopping area | Taxi rank | Bike racks | Toilets | Wheelchair accessible toilet | Baby change table | Emergency help point | Payphone | Departure indicator screen | Opal card top up or single trip ticket machine (Cash or Card Payment)","This location is Independent Access | Wheelchair ramp boarding assistance | Hearing loop | PA system for announcements | Platform edge tactiles | Stairs | Lift","Train, Bus, Taxi",6.30-10am,3.00-7pm,False
"Eltham Coach Stop",24803,-28.755837,153.394117,10162129,,"Eltham Tennis Courts, Eltham Rd, Eltham NSW 2480",,,Coach,,,False
"Emmdale Coach Stop",28361,-31.653308,144.268255,10150186,,"Emmdale Roadhouse, Barrier Highway, Wilcannia NSW 2836",,,Coach,,,False
"Emu Plains Station",275020,-33.74556778,150.6722867,10101253,"02 4780 3817","Station St, Emu Plains NSW 2750","Commuter car park | Wheelchair accessible car space | Kiss and ride stopping area | Bike racks | Bike lockers | Bike shed | Wheelchair accessible toilet | Baby change table | Emergency help point | Payphone | Departure indicator screen | Opal card top up or single trip ticket machine (Cash or Card Payment)","This location is Independent Access | Wheelchair ramp boarding assistance | PA system for announcements | Platform edge tactiles | Stairs | Lift","Train, Bus",6.30-10am,3.00-7pm,True
"Engadine Station",223310,-34.06789901,151.0146529,10101353,"02 9522 1224","Princes Hwy, Engadine NSW 2233","Commuter car park | Wheelchair accessible car space | Kiss and ride stopping area | Bike racks | Bike lockers | Toilets | Wheelchair accessible toilet | Baby change table | Emergency help point | Payphone | Departure indicator screen | Opal card top up or single trip ticket machine (Cash or Card Payment)","This location is Independent Access | Wheelchair ramp boarding assistance | PA system for announcements | Platform edge tactiles | Stairs | Lift","Train, Bus, Taxi",6.30-10am,3.00-7pm,True
"Epping Station",212110,-33.77284145,151.0821766,10101429,"02 8878 4100","Beecroft Rd, Epping NSW 2121","Bike lockers | Bike racks | Emergency help point | Kiss and ride stopping area | Payphone | Opal card top up or single trip ticket machine (Cash or Card Payment) | Toilets | Wheelchair accessible car space | Wheelchair accessible payphone | Wheelchair accessible toilet (MLAK) | Baby change table | Taxi rank | Bike shed","This location is Independent Access | Escalator | Lift | Stairs | Hearing loop | Wheelchair ramp boarding assistance | Platform edge tactiles | PA system for announcements","Metro, Train, Bus, Taxi",6.30-10am,3.00-7pm,True
"Erskineville Station",204310,-33.9008581,151.1853076,10101324,"02 9563 7579","Swanson St, Erskineville NSW 2043","Kiss and ride stopping area | Toilets | Wheelchair accessible toilet | Baby change table | Emergency help point | Payphone | Departure indicator screen | Opal card top up or single trip ticket machine (Cash or Card Payment)","This location is Not Accessible | Wheelchair ramp boarding assistance | PA system for announcements | Platform edge tactiles | Stairs","Train, Bus",6.30-10am,3.00-7pm,False
"ES Marks Light Rail",203362,-33.905813,151.223925,10101613,,"Anzac Pde, Moore Park NSW 2021","Bike racks | Emergency help point | Departure indicator screen | Opal card top up or single trip ticket machine (Card Payment only)","This location is Independent Access | Hearing loop | Platform edge tactiles | Level crossing","Light rail",6.30-10am,3.00-7pm,False
"Euabalong Coach Stop",28775,-33.108964,146.473193,10150287,,"Lachlan St opp Royal Hotel, Euabalong NSW 2877",,,Coach,,,False
"Euabalong West Coach Stop",28777,-33.055715,146.394249,10150297,,"Uabba St at Murrin St, Euabalong West NSW 2877",,,Coach,,,False
"Euabalong West Station",28771,-33.0548,146.3909,10155018,"13 22 32","Uabba St, Euabalong West NSW 2877",,"This location is Not Accessible | Wheelchair ramp boarding assistance | Hearing loop | PA system for announcements | Stairs",Train,,,False
"Eugowra Coach Stop",28061,-33.427064,148.369866,10150251,,"Broad St at Myall St, Eugowra NSW 2806",,,Coach,,,False
"Eumungurie Coach Stop",28315,-31.949295,148.619853,10150272,,"Railway St after Mogriguy Rd, Eumungerie NSW 2831",,,Coach,,,False
"Eungai Station",24411,-30.8497,152.9001,10155049,"13 22 32","South Bank Rd, Eungai Rail NSW 2441","Commuter car park","This location is Independent Access | Wheelchair ramp boarding assistance | PA system for announcements",Train,,,False
"Euston Coach Stop",27371,-34.577328,142.744641,10150246,,"Murray Tce opp Euston General Store, Euston NSW 2737",,,Coach,,,False
"Evans Head Coach Stop",24731,-29.118619,153.431145,10150359,,"Evans Head Library, Woodburn St, Evans Head NSW 2473",,,"Coach, Bus",,,False
"Exeter Station",257930,-34.61377487,150.3173447,10101309,"02 4868 1115","Middle Rd, Exeter NSW 2579","Commuter car park | Bike racks | Toilets | Emergency help point | No Opal card top up or single trip ticket sales","This location is Assisted Access | Wheelchair ramp boarding assistance | Hearing loop | PA system for announcements | Level crossing","Train, Bus",6.00-10am,3.00-7pm,True
"Exhibition Centre Light Rail",2000203,-33.87719386,151.1997027,10101440,,"Darling Dr, Sydney NSW 2000","Emergency help point | No Opal card top up or single trip ticket sales","This location is Independent Access | PA system for announcements | Platform edge tactiles | Level crossing | Stairs","Light rail",6.30-10am,3.00-7pm,False
"Fairfield Station",216510,-33.87233065,150.9570711,10101285,"02 9765 1641","The Crescent, Fairfield NSW 2165","Commuter car park | Wheelchair accessible car space | Kiss and ride stopping area | Taxi rank | Bike racks | Toilets | Wheelchair accessible toilet | Baby change table | Emergency help point | Payphone | Departure indicator screen | Opal card top up or single trip ticket machine (Card Payment only)","This location is Independent Access | Wheelchair ramp boarding assistance | PA system for announcements | Platform edge tactiles | Stairs | Lift","Train, Bus, Taxi",6.30-10am,3.00-7pm,False
"Fairy Meadow Station",251910,-34.39583411,150.8961702,10101370,"02 4223 5582","Elliots Rd, Fairy Meadow NSW 2519","Commuter car park | Wheelchair accessible car space | Kiss and ride stopping area | Bike racks | Bike lockers | Wheelchair accessible toilet | Baby change table | Emergency help point | Payphone | No Opal card top up or single trip ticket sales","This location is Independent Access | Wheelchair ramp boarding assistance | PA system for announcements | Platform edge tactiles | Stairs | Lift | Hearing loop","Train, Taxi",6.00-10am,3.00-7pm,True
"Fassifern Station",228330,-32.9857882,151.5812509,10101151,"02 4985 7209","Tucker Close, Fassifern NSW 2283","Commuter car park | Wheelchair accessible car space | Kiss and ride stopping area | Bike racks | Toilets | Emergency help point | Payphone | Opal card top up or single trip ticket machine (Cash or Card Payment)","This location is Independent Access | Wheelchair ramp boarding assistance | Hearing loop | PA system for announcements | Platform edge tactiles | Stairs | Lift","Train, Bus",6.00-10am,3.00-7pm,True
"Faulconbridge Station",277610,-33.69648835,150.5350339,10101260,"02 4780 3906","Great Western Hwy, Faulconbridge NSW 2776","Commuter car park | Wheelchair accessible car space | Kiss and ride stopping area | Bike racks | Toilets | Wheelchair accessible toilet | Baby change table | Emergency help point | Information point | Payphone | No Opal card top up or single trip ticket sales","This location is Independent Access | Wheelchair ramp boarding assistance | PA system for announcements | Platform edge tactiles | Stairs | Lift | Hearing loop","Train, Bus",6.00-10am,3.00-7pm,True
"Finley Coach Stop",27131,-35.639939,145.579341,10150200,,"Finley War Memorial, Wollamai St, Finley NSW 2713",,,Coach,,,False
"Fish Market Light Rail",200952,-33.87091734,151.192293,10101435,,"Miller St, Pyrmont NSW 2009","Emergency help point | Opal card top up or single trip ticket machine (Card Payment only)","This location is Independent Access | PA system for announcements | Platform edge tactiles | Level crossing | Stairs | Lift","Light rail",6.30-10am,3.00-7pm,False
"Fish Market Wharf",200945,-33.873317,151.191755,10103024,,"Pyrmont Bridge Rd, Pyrmont NSW 2009",,"This location is Not Accessible |",Ferry,,,False
"Flemington Station",214020,-33.86482229,151.0697665,10101217,"02 9752 8477","The Crescent, Homebush West NSW 2140","Kiss and ride stopping area | Taxi rank | Bike racks | Toilets | Wheelchair accessible toilet (MLAK) | Baby change table | Emergency help point | Payphone | Departure indicator screen | Opal card top up or single trip ticket machine (Cash or Card Payment)","This location is Independent Access | Wheelchair ramp boarding assistance | Hearing loop | PA system for announcements | Platform edge tactiles | Stairs | Lift","Train, Bus, Taxi",6.30-10am,3.00-7pm,False
"Forbes Coach Stop",28711,-33.379132,148.01189,10150326,,"Forbes Visitor Information Centre, Union St, Forbes NSW 2871",,,Coach,,,False
"Forster Coach Stop",24281,-32.18311,152.513002,10150029,,"Forster Tuncurry Visitor Information Centre, Little St, Forster NSW 2428",,,Coach,,,False
"Forster Keys Coach Stop",24282,-32.212959,152.525439,10150028,,"The Lakes Way before Cape Hawk Dr, Forster NSW 2428",,,"Coach, Bus",,,False
"Frederickton Coach Stop",244068,-31.035596,152.866693,10161630,,"Macleay St at Christmas St, Frederickton NSW 2440",,,"Regional coach, Bus",,,False
"Galong Coach Stop",25851,-34.601176,148.557725,10150337,,"Bent St at McMahon St, Galong NSW 2585",,,Coach,,,False
"Ganmain Coach Stop",27021,-34.793782,147.03889,10150033,,"Ford St at Hort St, Ganmain NSW 2702",,,Coach,,,False
"Garden Island Wharf",201119,-33.85813587,151.2299226,10102001,,"Garden Island Peninsula, Potts Point NSW 2011","Toilets | Departure indicator screen | No Opal card top up or single trip ticket sales","This location is Independent Access | Wheelchair ramp boarding assistance | Stairs",Ferry,,,False
"Gerogery Coach Stop",264267,-35.83613,146.993483,10156282,,"Gerogery Post Office, Main St, Gerogery NSW 2642",,,Coach,,,False
"Gerringong Station",253420,-34.74488594,150.8175078,10101387,"02 4234 1422","Grey St, Gerringong NSW 2534","Commuter car park | Wheelchair accessible car space | Kiss and ride stopping area | Toilets | Emergency help point | Information point | Payphone | No Opal card top up or single trip ticket sales","This location is Independent Access | Wheelchair ramp boarding assistance | Hearing loop | PA system for announcements | Platform edge tactiles","Train, Taxi",6.00-10am,3.00-7pm,True
"Geurie Station",28311,-32.398277,148.830581,10155013,"13 22 32","Mitchell Hwy, Geurie NSW 2818","Commuter car park | Information point","This location is Assisted Access | Wheelchair ramp boarding assistance | PA system for announcements","Train, Coach, Bus",,,False
"Gibraltar Range Coach Stop",23702,-29.513902,152.312939,10150314,,"Gwydir Hwy, Gilbraltar Range NSW 2370",,,Coach,,,False
"Gilgai Coach Stop",23602,-29.853765,151.117179,10150330,,"Marsh St at Hall St, Gilgai NSW 2360",,,Coach,,,False
"Gilgandra Coach Stop",28271,-31.711945,148.665964,10150116,,"Warren St before Morris St, Gilgandra NSW 2827",,,Coach,,,False
"Girilambone Coach Stop",28318,-31.711945,148.665964,10150263,,"Mitchell Hwy opp Girilambone Country Store, Girilambone NSW 2831",,,Coach,,,False
"Glebe Light Rail Light Rail",203755,-33.87715587,151.1873612,10101433,,"Lower Avon St, Glebe NSW 2037","Emergency help point | Opal card top up or single trip ticket machine (Card Payment only)","This location is Independent Access | PA system for announcements | Platform edge tactiles | Level crossing | Stairs","Light rail",6.30-10am,3.00-7pm,False
"Glen Innes Coach Stop",23701,-29.7383,151.7377,10150315,,"Glen Innes Visitor Information Centre, 152 Church St, Glen Innes NSW 2370",,,Coach,,,False
"Glenbrook Station",277310,-33.76900437,150.6208342,10101255,"02 4780 3805","Burfitt Pde, Glenbrook NSW 2773","Commuter car park | Wheelchair accessible car space | Kiss and ride stopping area | Bike lockers | Toilets | Wheelchair accessible toilet | Baby change table | Emergency help point | Payphone | Opal card top up or single trip ticket machine (Card Payment only) | Information point","This location is Independent Access | Wheelchair ramp boarding assistance | PA system for announcements | Platform edge tactiles | Stairs | Lift","Train, Bus",6.00-10am,3.00-7pm,True
"Glencoe Coach Stop",23652,-29.925909,151.723766,10150098,,"Red Lion Hotel, New England Hwy, Glencoe NSW 2365",,,Coach,,,False
"Glenfield Station",216710,-33.97236827,150.8928072,10101291,"02 9765 1162","Railway Pde, Glenfield NSW 2167","Commuter car park | Wheelchair accessible car space | Kiss and ride stopping area | Taxi rank | Bike racks | Bike lockers | Toilets | Wheelchair accessible toilet (MLAK) | Baby change table | Emergency help point | Payphone | Departure indicator screen | Opal card top up or single trip ticket machine (Card Payment only)","This location is Independent Access | Wheelchair ramp boarding assistance | Hearing loop | PA system for announcements | Platform edge tactiles | Stairs | Lift","Train, Bus, Taxi",6.30-10am,3.00-7pm,False
"Gloucester Station",24221,-32.004766,151.966735,10155028,"13 22 32","Bucketts Way, Gloucester NSW 2422","Commuter car park | Toilets | Emergency help point | Information point","This location is Assisted Access | Wheelchair ramp boarding assistance | PA system for announcements",Train,,,False
"Gloucester Town Coach Stop",24224,-32.00678,151.95721,10150192,,"Billabong Native Garden, Denison St, Gloucester NSW 2422",,,Coach,,,False
"Gongolgon Coach Stop",283921,-30.349861,146.89596,10150224,,"Colayne St after Campbell St, Gongolgon NSW 2839",,,Coach,,,False
"Good Forest Coach Stop",2790130,-33.615754,150.112188,10150011,,"Jenolan Caves Rd at Lowther Siding Rd, Lowther NSW 2790",,,Coach,,,False
"Goonellabah Coach Stop",24805,-28.811465,153.344105,10150138,,"Ballina Rd at James St, Goonellabah NSW 2480",,,Coach,,,False
"Gordon Station",207210,-33.75600864,151.154528,10101121,"02 9847 8458","St Johns Ave, Gordon NSW 2072","Commuter car park | Transport Park&Ride | Wheelchair accessible car space | Kiss and ride stopping area | Taxi rank | Bike racks | Bike lockers | Toilets | Wheelchair accessible toilet | Baby change table | Emergency help point | Payphone | Departure indicator screen | Opal card top up or single trip ticket machine (Card Payment only)","This location is Independent Access | Wheelchair ramp boarding assistance | Hearing loop | PA system for announcements | Platform edge tactiles | Stairs | Lift","Train, Bus, Taxi",6.30-10am,3.00-7pm,True
"Gosford Station",225040,-33.42388261,151.3417109,10101139,"02 4349 9260","Mann St, Gosford NSW 2250","Commuter car park | Wheelchair accessible car space | Kiss and ride stopping area | Taxi rank | Bike racks | Bike lockers | Bike shed | Wheelchair accessible toilet | Baby change table | Emergency help point | Payphone | Free WiFi hotspot | Departure indicator screen | Opal card top up or single trip ticket machine (Cash or Card Payment)","This location is Independent Access | Wheelchair ramp boarding assistance | Hearing loop | PA system for announcements | Platform edge tactiles | Stairs | Lift","Train, Bus, Taxi",6.00-10am,3.00-7pm,True
"Goulburn Big Merino Coach Stop",2580172,-34.773038,149.692324,10150115,,"Lockyer St, Goulburn NSW 2580",,,Coach,,,False
"Goulburn Station",258010,-34.75846191,149.7192744,10101315,"13 22 32","Sloane St, Goulburn NSW 2580","Commuter car park | Wheelchair accessible car space | Kiss and ride stopping area | Taxi rank | Bike racks | Toilets | Wheelchair accessible toilet | Baby change table | Emergency help point | Payphone | No Opal card top up or single trip ticket sales","This location is Independent Access | Wheelchair ramp boarding assistance | Hearing loop | Hearing loop (ticket counter) | PA system for announcements | Platform edge tactiles | Stairs","Train, Bus, Taxi",6.00-10am,3.00-7pm,True
"Grafton Station",24601,-29.703905,152.941692,10155063,"13 22 32","Crisp Ave, South Grafton NSW 2460","Commuter car park | Wheelchair accessible car space | Taxi rank | Toilets | Wheelchair accessible toilet | Baby change table | Emergency help point | Information point | Payphone | Departure indicator screen","This location is Independent Access | Wheelchair ramp boarding assistance | Hearing loop | PA system for announcements | Platform edge tactiles | Stairs","Train, Regional coach, Bus, Taxi",,,False
"Granville Station",214240,-33.83317598,151.0124947,10101227,"02 9848 9388","Bridge St, Granville NSW 2142","Commuter car park | Wheelchair accessible car space | Kiss and ride stopping area | Taxi rank | Bike racks | Bike lockers | Toilets | Wheelchair accessible toilet | Wheelchair accessible toilet (MLAK) | Baby change table | Emergency help point | Payphone | Departure indicator screen | Opal card top up or single trip ticket machine (Card Payment only)","This location is Independent Access | Wheelchair ramp boarding assistance | PA system for announcements | Platform edge tactiles | Stairs | Lift","Train, Bus, Taxi",6.30-10am,3.00-7pm,False
"Gravesend Coach Stop",24011,-29.58381,150.338048,10150278,,"Gravesend General Store, Railway Pde, Gravesend NSW 2401",,,Coach,,,False
"Green Square Station",201710,-33.90606259,151.2024745,10101329,,"Cnr Botany Rd & O'Riordan St, Alexandria NSW 2015","Bike shed | Toilets | Wheelchair accessible toilet | Baby change table | Emergency help point | Payphone | Departure indicator screen | Opal card top up or single trip ticket machine (Cash or Card Payment) | Opal card top up machine (Card Payment only)","This location is Independent Access | Wheelchair ramp boarding assistance | PA system for announcements | Platform edge tactiles | Stairs | Lift | Escalator","Train, Bus",6.30-10am,3.00-7pm,False
"Greenwich Point Wharf",206518,-33.84209993,151.1808023,10102019,,"Lower Serpentine Rd, Greenwich NSW 2065","Emergency help point | Information point | Departure indicator screen | No Opal card top up or single trip ticket sales","This location is Not Accessible | Wheelchair ramp boarding assistance | Hearing loop | PA system for announcements | Stairs","Bus, Ferry",,,False
"Greenwich Wharf",206519,-33.834036,151.182367,10102047,,"Greenwich NSW 2065","Kiss and ride stopping area","This location is Not Accessible | Wheelchair ramp boarding assistance",Ferry,,,False
"Grenfell Coach Stop",28101,-33.893479,148.160537,10150036,,"Grenfell Motel, Main St, Grenfell NSW 2810",,,Coach,,,False
"Greta Station",233410,-32.68662215,151.3840895,10101188,"02 6543 1018","Nelson St, Greta NSW 2334","Commuter car park | Wheelchair accessible car space | Emergency help point | No Opal card top up or single trip ticket sales","This location is Not Accessible | Wheelchair ramp boarding assistance | Hearing loop | PA system for announcements | Stairs",Train,6.00-10am,3.00-7pm,True
"Griffith Station",26801,-34.28682,146.047734,10155011,"13 22 32","Railway St, Griffith NSW 2680","Commuter car park | Wheelchair accessible car space | Toilets | Wheelchair accessible toilet | Emergency help point | Information point | Payphone","This location is Independent Access | Wheelchair ramp boarding assistance | Hearing loop | PA system for announcements",Train,,,False
"Griffith Town Coach Stop",268059,-34.289098,146.050858,10150117,,"Griffith Visitor Information Centre, 1 Jondaryan Ave, Griffith NSW 2680",,,Coach,,,False
"Griffith Town Coach Stop",268059,-34.289098,146.050858,10150117,,"Griffith Visitor Information Centre, 1 Jondaryan Ave, Griffith NSW 2680",,,Coach,,,False
"Grong Grong Coach Stop",26521,-34.740092,146.782746,10150292,,"Narrandera St at Bolaro St, Grong Grong NSW 2652",,,Coach,,,False
"Guildford Station",216110,-33.8545057,150.984361,10101283,"02 9848 9287","Military Rd, Guildford NSW 2161","Commuter car park | Wheelchair accessible car space | Kiss and ride stopping area | Taxi rank | Bike racks | Wheelchair accessible toilet | Baby change table | Emergency help point | Payphone | Departure indicator screen | Opal card top up or single trip ticket machine (Cash or Card Payment)","This location is Independent Access | Wheelchair ramp boarding assistance | Hearing loop | PA system for announcements | Platform edge tactiles | Stairs | Lift","Train, Bus, Taxi",6.30-10am,3.00-7pm,False
"Gulargambone Coach Stop",28281,-31.331091,148.472993,10150091,,"Coonamble St after Bourbah St, Gulargambone NSW 2828",,,Coach,,,False
"Gulgong Coach Stop",28521,-32.36437,149.533026,10150173,,"Herbert St at Holtermann St, Gulgong NSW 2852",,,Coach,,,False
"Gundagai Coach Stop",27222,-35.06297,148.101696,10150255,,"Gundagai Visitor Information Centre, Sheridan St, Gundagai NSW 2722",,,Coach,,,False
